City_ID,City,Lat,Lng,Max Temp,Humidity,Cloudiness,Wind Speed,Country,Date
0,ribeira grande,38.5167,-28.7,20.43,77,20,2.57,PT,1683983625
1,talnakh,69.4865,88.3972,-9.33,90,100,5.08,RU,1683983625
2,isafjordur,66.0755,-23.124,8.02,66,75,3.09,IS,1683983625
3,maumere,-8.6199,122.2111,24.71,76,65,3.51,ID,1683983625
4,ushuaia,-54.8,-68.3,6.81,57,20,3.6,AR,1683983499
5,anadyr,64.75,177.4833,0.28,93,75,6.0,RU,1683983626
6,menominee,45.1078,-87.6143,15.27,55,20,7.2,US,1683983626
7,rongelap,11.1635,166.8941,27.54,81,16,7.68,MH,1683983626
8,samarinda,-0.5,117.15,24.0,98,32,0.89,ID,1683982819
9,port-aux-francais,-49.35,70.2167,3.8,64,65,5.9,TF,1683983627
10,salamanca,40.8333,-6.0,16.11,26,0,5.52,ES,1683983627
11,grytviken,-54.2811,-36.5092,-0.43,83,93,4.4,GS,1683983627
12,waitangi,-43.9535,-176.5597,11.09,62,100,6.4,NZ,1683983627
13,avarua,-21.2078,-159.775,26.03,83,75,8.23,CK,1683983628
14,mogocha,53.7333,119.7667,6.41,76,100,1.89,RU,1683983628
15,stanley,54.868,-1.6985,16.27,65,0,3.6,GB,1683983628
16,gao,16.6362,1.637,40.92,16,59,3.67,ML,1683983629
17,rehoboth,-23.3167,17.0833,28.14,16,90,7.48,NA,1683983408
18,kone,-21.0595,164.8658,22.36,82,100,2.43,NC,1683983629
19,longyearbyen,78.2186,15.6401,0.91,86,75,1.54,SJ,1683983534
20,san pedro pochutla,15.7333,-96.4667,24.84,68,4,1.77,MX,1683983630
21,mirador,-6.3708,-44.3631,31.42,55,86,0.79,BR,1683983630
22,yellowknife,62.456,-114.3525,11.27,58,100,2.67,CA,1683983630
23,selfoss,63.9331,-20.9971,7.25,71,100,4.85,IS,1683983630
24,karymskoye,51.6167,114.35,9.34,41,55,5.83,RU,1683983631
25,college,64.8569,-147.8028,7.55,73,40,3.6,US,1683983631
26,al jawf,29.5,38.75,30.42,13,0,4.33,SA,1683983631
27,la manga del mar menor,37.6413,-0.7165,23.0,59,20,7.6,ES,1683983632
28,carbonear,47.7332,-53.2148,12.91,46,11,4.41,CA,1683983632
29,vorgashor,67.5833,63.95,-1.45,87,99,7.45,RU,1683983633
30,puerto baquerizo moreno,-0.9,-89.6,25.55,94,75,4.63,EC,1683983633
31,invercargill,-46.4,168.35,8.34,95,85,1.34,NZ,1683983438
32,bouca,6.5105,18.2733,37.88,30,99,2.7,CF,1683983633
33,whitehorse,60.7161,-135.0538,4.45,75,12,4.92,CA,1683983634
34,tiksi,71.6872,128.8694,-12.89,90,100,3.15,RU,1683983634
35,hawaiian paradise park,19.5933,-154.9731,20.73,91,40,2.06,US,1683983634
36,sitka,57.0531,-135.33,8.94,93,100,2.06,US,1683983634
37,adamstown,-25.066,-130.1015,22.61,61,100,7.57,PN,1683983635
38,tazovsky,67.4667,78.7,-3.58,95,100,8.67,RU,1683983635
39,port lincoln,-34.7333,135.8667,15.89,75,100,3.24,AU,1683983481
40,la passe,45.5549,-0.8967,17.79,73,90,4.25,FR,1683983636
41,iqaluit,63.7506,-68.5145,-7.39,79,6,10.73,CA,1683983636
42,puerto natales,-51.7236,-72.4875,1.25,93,100,1.54,CL,1683983636
43,quesnel,52.9999,-122.5029,11.25,76,100,1.81,CA,1683983636
44,blackmans bay,-43.0167,147.3167,7.51,88,98,2.41,AU,1683983637
45,khandyga,62.6667,135.6,0.1,95,86,1.73,RU,1683983637
46,acara,-1.9608,-48.1967,27.51,87,47,0.61,BR,1683983637
47,haiku-pauwela,20.9219,-156.3051,21.13,82,0,1.54,US,1683983637
48,ambovombe,-25.1667,46.0833,24.72,64,0,4.39,MG,1683983638
49,st. john's,47.5649,-52.7093,12.66,37,11,5.48,CA,1683983638
50,qarqaraly,49.4058,75.4742,21.72,40,44,8.62,KZ,1683983639
51,papatowai,-46.5619,169.4708,7.57,81,100,2.86,NZ,1683983639
52,smara,26.7384,-11.6719,29.45,21,84,6.2,EH,1683983639
53,puerto ayora,-0.7393,-90.3518,26.98,100,98,3.58,EC,1683983639
54,albany,42.6001,-73.9662,19.58,53,100,2.02,US,1683983639
55,hermanus,-34.4187,19.2345,16.0,57,42,9.26,ZA,1683983640
56,hilo,19.7297,-155.09,22.38,90,40,2.24,US,1683983640
57,rapid valley,44.0625,-103.1463,12.26,88,100,11.83,US,1683983641
58,moranbah,-22.0016,148.0466,16.94,84,0,5.14,AU,1683983641
59,rudbar,30.15,62.6,36.85,8,0,8.01,AF,1683983642
60,klyuchi,52.2667,79.1667,15.39,25,100,7.14,RU,1683983642
61,edinburgh of the seven seas,-37.0676,-12.3116,18.36,94,81,11.33,SH,1683983642
62,vila velha,-20.3297,-40.2925,24.97,73,0,3.6,BR,1683983643
63,kalas,18.1667,74.8,37.76,18,25,7.66,IN,1683983643
64,la'ie,21.6477,-157.9253,22.98,85,31,2.87,US,1683983643
65,lazaro cardenas,17.9583,-102.2,26.04,73,76,1.3,MX,1683983531
66,heyuan,23.7333,114.6833,21.41,91,100,0.51,CN,1683983440
67,fale old settlement,-9.3852,-171.2468,28.62,78,23,6.03,TK,1683983644
68,thunder bay,48.4001,-89.3168,10.95,58,75,5.66,CA,1683983644
69,ust-nera,64.5667,143.2,-1.72,92,100,4.09,RU,1683983645
70,klaksvik,62.2266,-6.589,9.51,97,100,8.33,FO,1683983645
71,kinmparana,12.8402,-4.9199,38.78,25,80,2.3,ML,1683983645
72,kragujevac,44.0167,20.9167,17.16,61,100,5.51,RS,1683983646
73,sur,22.5667,59.5289,35.08,42,0,2.41,OM,1683983646
74,bredasdorp,-34.5322,20.0403,16.04,56,33,7.59,ZA,1683983646
75,langtoucun,40.0261,124.3286,11.44,93,2,1.57,CN,1683983646
76,westport,41.1415,-73.3579,23.63,57,75,1.34,US,1683983647
77,port elizabeth,-33.918,25.5701,15.61,95,75,5.14,ZA,1683983411
78,mount isa,-20.7333,139.5,19.87,49,5,2.57,AU,1683983647
79,moree,-29.4667,149.85,17.63,50,66,3.75,AU,1683983647
80,valley city,46.9233,-98.0032,15.29,100,100,4.12,US,1683983648
81,gadzhiyevo,69.2551,33.3362,5.13,99,100,4.5,RU,1683983648
82,nova sintra,14.8667,-24.7167,20.17,80,7,6.25,CV,1683983648
83,bubaque,11.2833,-15.8333,25.89,75,86,3.27,GW,1683983648
84,remire-montjoly,4.9167,-52.2667,26.02,94,75,1.54,GF,1683983552
85,hamilton,39.1834,-84.5333,21.22,93,100,3.09,US,1683983649
86,bethel,41.3712,-73.414,22.93,55,0,2.06,US,1683983649
87,daru,-9.0763,143.2092,26.37,90,100,6.07,PG,1683983649
88,bermejillo,25.8833,-103.6167,22.02,41,0,2.4,MX,1683983649
89,ilulissat,69.2167,-51.1,-1.99,86,75,3.09,GL,1683983650
90,karlskrona,56.1616,15.5866,22.25,57,11,3.35,SE,1683983650
91,darnah,32.767,22.6367,21.92,50,63,3.9,LY,1683983650
92,atafu village,-8.5421,-172.5159,28.39,79,23,5.82,TK,1683983651
93,sinop,41.7711,34.8709,12.24,65,1,4.37,TR,1683983651
94,vadso,70.0744,29.7487,14.49,58,0,5.14,NO,1683983651
95,cidade velha,14.9167,-23.6167,27.26,65,40,4.12,CV,1683983652
96,sevastopol,44.6,33.5333,15.83,64,70,4.8,UA,1683983652
97,nago,26.5881,127.9761,24.14,88,100,4.86,JP,1683983494
98,saldanha,-33.0117,17.9442,17.89,50,0,8.9,ZA,1683983653
99,howrah,22.5892,88.3103,30.0,66,75,2.06,IN,1683983653
100,kita,13.0349,-9.4895,38.28,26,29,2.63,ML,1683983653
101,boguchany,58.3814,97.4531,0.25,52,100,3.98,RU,1683983653
102,petropavlovsk-kamchatsky,53.0452,158.6483,2.1,69,5,4.09,RU,1683983541
103,hadibu,12.65,54.0333,30.65,69,44,1.62,YE,1683983532
104,colonia,50.9333,6.95,23.23,47,20,3.09,DE,1683983428
105,sinjai,-5.1241,120.253,25.03,87,43,1.99,ID,1683983654
106,jamestown,42.097,-79.2353,17.8,65,0,3.6,US,1683983654
107,kodiak,57.79,-152.4072,5.73,87,100,5.14,US,1683983655
108,thompson,55.7435,-97.8558,11.32,41,5,1.88,CA,1683983655
109,sisimiut,66.9395,-53.6735,-1.58,65,82,3.71,GL,1683983655
110,sydney mines,46.2367,-60.2177,11.21,96,100,3.58,CA,1683983656
111,susuman,62.7833,148.1667,-2.76,97,100,2.03,RU,1683983656
112,rabo de peixe,37.8,-25.5833,19.73,73,20,4.63,PT,1683983656
113,tchollire,8.4022,14.1698,36.29,31,100,3.13,CM,1683983657
114,praia da vitoria,38.7333,-27.0667,20.42,87,99,4.55,PT,1683983657
115,ad dawadimi,24.5077,44.3924,37.87,9,69,5.3,SA,1683983657
116,pariaman,-0.619,100.12,29.03,88,39,1.72,ID,1683983657
117,kirawsk,53.2686,29.4736,21.15,39,93,1.92,BY,1683983658
118,gorgan,36.8387,54.4348,24.98,57,75,6.17,IR,1683983658
119,polyarnyy,69.1989,33.4478,6.4,93,98,4.69,RU,1683983533
120,mahemdavad,22.8333,72.7667,42.14,12,0,4.85,IN,1683983658
121,grande prairie,55.1667,-118.8027,12.07,60,35,0.95,CA,1683983460
122,mar del plata,-38.0023,-57.5575,16.72,92,75,2.24,AR,1683983530
123,kuantan,3.8077,103.326,27.63,77,7,2.03,MY,1683983322
124,margaret river,-33.95,115.0667,14.26,73,34,4.13,AU,1683983659
125,lompoc,34.6391,-120.4579,12.1,97,100,0.45,US,1683983659
126,mahenge,-8.6833,36.7167,23.96,64,75,0.79,TZ,1683983660
127,wailua homesteads,22.0669,-159.378,19.3,87,40,3.6,US,1683983660
128,bilibino,68.0546,166.4372,-17.35,88,6,2.93,RU,1683983660
129,island harbour,50.724,-1.2758,18.88,71,6,3.13,GB,1683983660
130,mahdia,35.5047,11.0622,21.97,67,100,6.43,TN,1683983660
131,mhamid,29.82,-5.72,35.49,7,0,9.08,MA,1683983661
132,moscow,55.7522,37.6156,23.13,25,58,4.34,RU,1683983294
133,geraldton,-28.7667,114.6,13.23,88,0,2.06,AU,1683983497
134,mandasa,18.8667,84.4667,29.09,74,80,2.22,IN,1683983661
135,punta arenas,-53.15,-70.9167,4.06,75,75,6.17,CL,1683983603
136,new norfolk,-42.7826,147.0587,8.17,74,89,1.25,AU,1683983662
137,siwa oasis,29.2041,25.5195,29.99,21,99,3.06,EG,1683983662
138,georgetown,5.4112,100.3354,30.96,74,20,2.57,MY,1683983444
139,lihue,21.9789,-159.3672,19.64,89,40,3.6,US,1683983663
140,kalmunai,7.4167,81.8167,28.91,76,83,5.91,LK,1683983663
141,diu,20.7141,70.9822,32.92,48,0,10.16,IN,1683983372
142,enewetak,11.3474,162.3373,27.91,78,99,8.45,MH,1683983664
143,kimbe,-5.5502,150.1429,25.3,92,97,1.72,PG,1683983664
144,port alfred,-33.5906,26.891,15.1,93,100,2.88,ZA,1683983665
145,olonkinbyen,70.9221,-8.7187,1.05,95,100,6.49,SJ,1683983665
146,qaqortoq,60.7167,-46.0333,0.59,86,100,3.54,GL,1683983665
147,luderitz,-26.6481,15.1594,20.77,44,3,13.24,NA,1683983408
148,zhangye,38.9342,100.4517,22.2,12,96,2.94,CN,1683983666
149,udachny,66.4167,112.4,-0.86,68,100,6.27,RU,1683983667
150,zagorz,49.5146,22.2671,15.53,100,72,2.14,PL,1683983667
151,shingu,33.7333,135.9833,14.92,97,100,1.29,JP,1683983606
152,lebu,-37.6167,-73.65,13.1,91,100,4.13,CL,1683983667
153,somerset east,-32.7217,25.588,9.64,97,100,3.56,ZA,1683983667
154,utrik,11.2278,169.8474,27.28,81,11,7.57,MH,1683983667
155,quellon,-43.1167,-73.6167,15.14,94,100,3.6,CL,1683983668
156,feijo,-8.1642,-70.3536,24.95,83,98,2.01,BR,1683983668
157,callao,-12.0667,-77.15,23.16,73,100,4.63,PE,1683983668
158,constantia,44.1833,28.65,18.38,46,98,2.29,RO,1683983484
159,karratha,-20.7377,116.8463,23.84,51,64,2.81,AU,1683983669
160,okha,53.5739,142.9478,8.17,67,87,5.88,RU,1683983634
161,urzhar,47.093,81.6294,21.52,53,54,2.36,KZ,1683983448
162,novyy turtkul',41.55,61.0167,30.95,19,34,5.67,UZ,1683983649
163,robore,-18.3333,-59.75,22.15,50,100,1.63,BO,1683983669
164,greenville,35.6127,-77.3663,21.18,81,0,3.6,US,1683983670
165,barra de santo antonio,-9.4047,-35.5072,28.6,67,100,2.91,BR,1683983670
166,kudahuvadhoo,2.6708,72.8944,28.37,78,98,8.0,MV,1683983670
167,vysokaya gora,55.9128,49.3017,20.1,63,99,1.42,RU,1683983671
168,huilong,31.8111,121.655,19.26,74,100,4.75,CN,1683983671
169,naze,28.3667,129.4833,20.31,84,100,6.7,JP,1683983504
170,port hedland,-20.3167,118.5667,19.03,88,100,0.51,AU,1683983672
171,fort bragg,35.139,-79.006,22.68,77,0,4.12,US,1683983672
172,queenstown,-31.8976,26.8753,9.4,93,100,3.47,ZA,1683983672
173,port saint john's,-31.6229,29.5448,17.23,92,100,3.05,ZA,1683983673
174,pisco,-13.7,-76.2167,21.03,78,100,2.06,PE,1683983658
175,stornoway,58.2093,-6.3865,14.46,73,20,7.2,GB,1683983673
176,karaton,-6.3424,106.1045,25.09,93,15,0.91,ID,1683983673
177,plastun,44.7561,136.2939,7.26,81,13,1.3,RU,1683983673
178,obock,12.25,43.0833,31.49,45,11,6.47,DJ,1683983674
179,minas de marcona,-15.2119,-75.1103,16.17,76,13,1.87,PE,1683983675
180,vilyuchinsk,52.9306,158.4028,2.92,80,24,3.46,RU,1683983675
181,vorkuta,67.5,64.0,-0.61,87,100,7.55,RU,1683983571
182,jebrail,39.3992,47.0283,14.49,80,100,3.51,AZ,1683983676
183,middlesboro,36.6084,-83.7166,20.13,100,75,0.0,US,1683983676
184,jennings,38.7192,-90.2604,23.28,90,40,2.57,US,1683983676
185,harnosand,62.6323,17.9379,20.01,67,14,3.03,SE,1683983676
186,west island,-12.1568,96.8225,25.99,94,75,5.14,CC,1683983676
187,touros,-5.1989,-35.4608,29.65,64,82,3.2,BR,1683983677
188,kapit,2.0167,112.9333,24.28,99,100,0.77,MY,1683983677
189,ringsted,55.4426,11.7901,19.95,37,0,5.08,DK,1683983668
190,saudarkrokur,65.7461,-19.6394,8.78,52,100,2.67,IS,1683983678
191,kailua-kona,19.6406,-155.9956,22.98,88,20,3.09,US,1683983678
192,onega,63.9061,38.1404,9.5,64,37,3.65,RU,1683983678
193,praia,14.9215,-23.5087,27.3,65,40,4.12,CV,1683983679
194,happy valley-goose bay,53.3168,-60.3315,6.17,65,100,4.12,CA,1683983679
195,laguna,38.421,-121.4238,15.91,87,0,0.0,US,1683983679
196,kodinsk,58.6881,99.1844,-0.1,56,62,4.16,RU,1683983679
197,carnarvon,-24.8667,113.6333,21.59,68,41,9.81,AU,1683983680
198,porto velho,-8.7619,-63.9039,27.03,78,0,4.12,BR,1683983672
199,tolanaro,-25.0319,46.9987,24.84,70,0,1.34,MG,1683983680
200,port mathurin,-19.6833,63.4167,25.8,74,5,8.28,MU,1683983680
201,massaguet,12.4755,15.4365,41.37,16,56,2.17,TD,1683983680
202,ylitornio,66.3089,23.6773,15.79,47,2,4.75,FI,1683983681
203,arquitecto tomas romero pereira,-26.4833,-55.25,15.97,60,0,1.22,PY,1683983681
204,katsuura,35.1333,140.3,17.01,65,100,6.02,JP,1683983681
205,tazacorte,28.629,-17.9293,22.86,70,75,7.72,ES,1683983681
206,kamensk-ural'skiy,56.4185,61.9329,13.99,35,91,2.97,RU,1683983682
207,nagqu,31.5,92.0,0.88,36,58,3.98,CN,1683983682
208,wang saphung,17.301,101.7685,25.01,91,100,1.43,TH,1683983682
209,mejit,10.2753,170.8646,27.53,81,100,7.51,MH,1683983682
210,san luis de la loma,17.2706,-100.8939,26.67,77,10,1.14,MX,1683983682
211,nea kallikrateia,40.3167,23.0667,21.4,66,100,5.45,GR,1683983683
212,tindouf,27.6711,-8.1474,33.96,9,13,11.15,DZ,1683983683
213,heroica caborca,30.7167,-112.15,19.52,33,0,0.91,MX,1683983684
214,khonsa,27.0167,95.5667,20.68,65,100,2.56,IN,1683983684
215,nili,33.7218,66.1302,22.37,17,54,5.51,AF,1683983684
216,misratah,32.3754,15.0925,32.67,25,62,10.59,LY,1683983684
217,fisterra,42.9049,-9.2629,19.86,73,2,10.01,ES,1683983684
218,rancho palos verdes,33.7445,-118.387,15.63,93,55,0.89,US,1683983685
219,nuuk,64.1835,-51.7216,0.34,74,100,3.09,GL,1683983452
220,aasiaat,68.7098,-52.8699,-3.0,81,99,3.99,GL,1683983685
221,kelibia,36.8476,11.0939,21.49,74,100,3.06,TN,1683983686
222,antalaha,-14.9003,50.2788,27.18,72,5,3.66,MG,1683983686
223,basco,20.4487,121.9702,26.36,74,38,2.76,PH,1683983687
224,temerluh,3.4506,102.4176,29.43,87,69,0.89,MY,1683983687
225,port-vila,-17.7338,168.3219,25.18,81,93,8.94,VU,1683983687
226,saint-leu,-21.15,55.2833,27.48,89,20,1.21,RE,1683983687
227,canutama,-6.5339,-64.3831,27.9,71,7,1.04,BR,1683983687
228,poronaysk,49.2167,143.1167,9.19,50,9,4.64,RU,1683983688
229,alice springs,-23.7,133.8833,9.75,46,0,3.59,AU,1683983472
230,floro,61.5996,5.0328,20.13,87,100,4.63,NO,1683983688
231,broome,42.2506,-75.833,19.64,55,0,4.63,US,1683983688
232,bardai,11.65,7.2333,38.91,11,100,4.73,NG,1683983689
233,nemuro,43.3236,145.575,6.14,84,96,4.57,JP,1683983689
234,altinyayla,39.2725,36.751,11.19,79,99,4.09,TR,1683983689
235,taro,-8.3862,115.28,24.0,88,99,1.66,ID,1683983689
236,oliver,49.1831,-119.5524,14.84,62,14,0.81,CA,1683983690
237,carutapera,-1.195,-46.02,29.75,66,50,1.1,BR,1683983690
238,kavala,40.9397,24.4019,18.31,70,20,3.09,GR,1683983690
239,leavenworth,39.2333,-95.0336,21.75,80,96,2.98,US,1683983691
240,chonchi,-42.6128,-73.8092,13.95,95,100,2.57,CL,1683983692
241,tura,25.5198,90.2201,27.1,43,100,1.83,IN,1683983401
242,shimanovsk,52.0,127.7,8.1,40,18,1.65,RU,1683983566
243,comodoro rivadavia,-45.8667,-67.5,11.92,62,40,4.12,AR,1683983693
244,shanghai,31.2222,121.4581,22.92,69,0,3.0,CN,1683983305
245,deir ez-zor,35.3359,40.1408,29.75,24,0,9.54,SY,1683983693
246,vernon,50.2581,-119.2691,12.47,65,32,0.89,CA,1683983693
247,macenta,8.5435,-9.471,33.6,41,100,1.66,GN,1683983694
248,ankazoabo,-22.2833,44.5167,28.8,39,2,0.49,MG,1683983694
249,tadine,-21.55,167.8833,23.33,71,100,9.36,NC,1683983694
250,northam,51.0333,-4.2167,18.47,78,6,2.73,GB,1683983694
251,altai,46.3722,96.2583,12.41,29,52,6.34,MN,1683983695
252,roanoke rapids,36.4615,-77.6542,21.49,72,96,4.59,US,1683983695
253,bangkalan,-7.0455,112.7351,26.97,78,94,3.82,ID,1683983696
254,vila franca do campo,37.7167,-25.4333,20.23,67,19,3.31,PT,1683983696
255,manay,7.215,126.5397,26.97,88,80,1.93,PH,1683983696
256,al jadid,27.05,14.4,35.04,11,6,5.26,LY,1683983696
257,huanimaro,20.3667,-101.5,17.82,52,98,0.27,MX,1683983697
258,blackpool,53.8167,-3.05,21.3,72,0,5.14,GB,1683983451
259,taft,31.7471,54.2088,33.97,7,20,4.12,IR,1683983697
260,villamontes,-21.25,-63.5,21.62,60,0,0.69,BO,1683983698
261,nabire,-3.3667,135.4833,26.15,88,100,0.89,ID,1683983699
262,camarinas,43.1311,-9.1817,19.96,72,5,8.08,ES,1683983699
263,mega,4.05,38.3,18.95,73,99,3.89,ET,1683983699
264,collie,-33.3667,116.15,9.4,92,0,1.55,AU,1683983700
265,hualien city,23.9769,121.6044,23.28,93,100,3.01,TW,1683983637
266,watsa,3.0372,29.5355,31.81,37,100,2.56,CD,1683983700
267,chibougamau,49.9168,-74.3659,-0.21,80,100,6.17,CA,1683983700
268,ar rutbah,33.0381,40.2848,28.45,20,0,7.93,IQ,1683983701
269,tamanrasset,22.785,5.5228,31.95,18,1,8.75,DZ,1683983697
270,margherita,27.2833,95.6833,26.45,48,100,1.95,IN,1683983702
271,berber,18.0216,33.983,43.96,4,9,6.64,SD,1683983704
272,porto uniao,-26.2381,-51.0783,11.02,80,100,0.64,BR,1683983704
273,north bend,43.4065,-124.2243,12.31,98,100,2.57,US,1683983705
274,ta`u,-14.2336,-169.5144,27.52,78,24,3.86,AS,1683983705
275,contamana,-7.3333,-75.0167,22.6,97,100,1.27,PE,1683983705
276,berezovyy,51.6667,135.7,13.58,66,81,2.3,RU,1683983705
277,nosy varika,-20.5833,48.5333,26.38,75,14,3.1,MG,1683983706
278,peace river,56.2501,-117.286,14.25,66,61,2.74,CA,1683983706
279,dakhla,23.6848,-15.958,20.28,76,52,8.86,EH,1683983706
280,la foa,-21.7108,165.8276,22.39,78,100,1.87,NC,1683983706
281,owando,-0.4819,15.8999,35.28,39,45,0.92,CG,1683983707
282,toliara,-23.35,43.6667,26.26,65,0,5.62,MG,1683983707
283,mahajanga,-15.7167,46.3167,29.34,58,2,3.21,MG,1683983707
284,puerto penasco,31.3167,-113.5333,21.33,67,0,4.06,MX,1683983524
285,acarau,-2.8856,-40.12,28.05,77,62,4.87,BR,1683983708
286,ketchikan,55.3422,-131.6461,11.26,93,100,3.6,US,1683983617
287,zaria,11.1113,7.7227,39.53,11,94,5.09,NG,1683983709
288,smithers,54.7804,-127.1743,10.18,62,100,0.0,CA,1683983709
289,opuwo,-18.0607,13.84,31.68,16,6,3.41,NA,1683983710
290,santiago,-33.4569,-70.6483,22.94,56,0,0.51,CL,1683983555
291,seguela,7.9611,-6.6731,35.81,37,81,2.83,CI,1683983710
292,wanganui,-39.9333,175.05,8.73,92,2,2.32,NZ,1683983602
293,fenghuang,27.9356,109.5996,18.43,83,100,1.6,CN,1683983711
294,at-bashi,41.1702,75.8106,16.69,41,100,2.03,KG,1683983711
295,palikir - national government center,6.9248,158.1611,27.47,100,100,1.54,FM,1683983711
296,sucre,-19.0333,-65.2627,12.9,68,26,0.27,BO,1683983564
297,gokceada,40.2011,25.909,19.6,59,19,4.13,TR,1683983711
298,dudinka,69.4058,86.1778,-9.1,86,100,8.71,RU,1683983685
299,kudat,6.8837,116.8477,27.25,85,37,2.47,MY,1683983712
300,nar'yan-mar,67.6713,53.087,-0.25,82,26,5.72,RU,1683983631
301,kavaratti,10.5669,72.642,29.83,73,91,3.78,IN,1683983712
302,yangjiang,21.85,111.9667,20.59,96,100,3.4,CN,1683983492
303,shchigry,51.8755,36.9043,22.9,41,77,3.8,RU,1683983713
304,pervomayskoye,43.919,46.7102,18.26,50,97,6.17,RU,1683983714
305,wuzhou,23.4833,111.3167,18.46,97,100,0.53,CN,1683983714
306,miyako,39.6367,141.9525,11.81,93,100,3.32,JP,1683983494
307,fortuna,40.5982,-124.1573,11.07,96,100,0.0,US,1683983714
308,severo-yeniseyskiy,60.3725,93.0408,-4.93,77,100,3.95,RU,1683983714
309,sabang,5.8933,95.3214,29.7,74,53,4.89,ID,1683983715
310,kismayo,-0.3582,42.5454,29.0,71,100,6.22,SO,1683983715
311,iskateley,67.6803,53.1512,-0.33,82,25,5.73,RU,1683983715
312,armacao de buzios,-22.7469,-41.8817,21.03,68,5,5.36,BR,1683983661
313,fort st. john,56.2499,-120.8529,11.46,61,84,1.26,CA,1683983716
314,gniezno,52.5348,17.5826,20.77,57,100,4.49,PL,1683983446
315,lyman,48.9884,37.8023,18.67,49,100,2.35,UA,1683983716
316,akureyri,65.6835,-18.0878,9.01,53,100,2.82,IS,1683983575
317,cidreira,-30.1811,-50.2056,16.44,65,84,1.92,BR,1683983716
318,barra dos coqueiros,-10.9089,-37.0386,30.01,66,20,2.57,BR,1683983717
319,antofagasta,-23.65,-70.4,18.6,68,32,0.45,CL,1683983717
320,jacmel,18.2342,-72.5347,28.91,67,99,0.58,HT,1683983717
321,piacabucu,-10.4056,-36.4344,29.18,61,98,3.11,BR,1683983717
322,sao vicente,-23.9631,-46.3919,20.15,76,77,0.58,BR,1683983687
323,galesong,-5.3166,119.3661,28.01,83,9,5.45,ID,1683983718
324,beolgyo,34.8449,127.3429,13.98,93,0,1.27,KR,1683983718
325,badger,64.8,-147.5333,7.51,75,100,3.6,US,1683983719
326,helena valley west central,46.6629,-112.0604,9.49,82,100,2.24,US,1683983719
327,codrington,-38.2667,141.9667,9.49,90,0,3.5,AU,1683983719
328,solnechnyy,50.7214,136.6319,14.37,69,100,4.77,RU,1683983719
329,taoudenni,22.6783,-3.9836,42.89,6,6,3.39,ML,1683983719
330,groton,41.3501,-72.0784,22.23,69,40,0.0,US,1683983720
331,kargasok,59.0556,80.8572,5.79,25,5,1.24,RU,1683983720
332,venado tuerto,-33.7456,-61.9688,19.87,65,54,3.66,AR,1683983720
333,oranjemund,-28.55,16.4333,16.12,62,0,9.93,NA,1683983720
334,urengoy,65.9667,78.3667,-1.27,83,100,7.74,RU,1683983720
335,nova vicosa,-17.8919,-39.3719,24.37,83,100,2.79,BR,1683983721
336,prince rupert,54.3161,-130.3201,11.05,93,100,1.54,CA,1683983721
337,revda,56.801,59.9303,15.3,31,100,1.62,RU,1683983526
338,fada,9.5667,8.3,38.68,17,48,3.83,NG,1683983721
339,lorengau,-2.0226,147.2712,27.03,84,35,1.07,PG,1683983722
340,nesterov,54.6306,22.5714,17.0,67,74,5.16,RU,1683983722
341,acapulco de juarez,16.8634,-99.8901,24.9,83,40,2.06,MX,1683983534
342,sihanoukville,10.6093,103.5296,29.97,74,20,2.06,KH,1683983722
343,uturoa,-16.7333,-151.4333,26.86,74,19,3.25,PF,1683983723
344,fuglafjordur,62.244,-6.814,9.26,96,100,5.25,FO,1683983723
345,alaghsas,17.0187,8.0168,40.48,8,81,4.25,NE,1683983723
346,kiruna,67.8557,20.2251,9.51,50,91,6.69,SE,1683983612
347,krumovgrad,41.4667,25.65,18.35,51,5,1.46,BG,1683983723
348,korsakov,46.6328,142.7813,5.47,74,3,3.31,RU,1683983472
349,hithadhoo,-0.6,73.0833,28.69,76,100,5.88,MV,1683983724
350,pangody,65.85,74.4859,0.46,99,100,6.87,RU,1683983724
351,ewo,-0.8725,14.8206,33.32,46,89,1.38,CG,1683983724
352,rio grande,-32.035,-52.0986,17.06,67,20,3.36,BR,1683983707
353,la sarre,48.8002,-79.1996,6.13,59,79,5.45,CA,1683983725
354,radebeul,51.1065,13.6605,19.2,53,20,6.17,DE,1683983725
355,djenne,13.9061,-4.5533,40.09,21,60,2.96,ML,1683983725
356,yarmouth,41.7057,-70.2286,23.12,54,20,4.12,US,1683983568
357,flying fish cove,-10.4217,105.6791,26.82,78,75,6.17,CX,1683983726
358,alesund,62.4723,6.1549,16.51,79,40,2.57,NO,1683983726
359,al hudaydah,14.7978,42.9545,33.75,56,7,3.43,YE,1683983726
360,khargone,21.8167,75.6,41.49,9,0,5.65,IN,1683983619
361,castillos,-34.1667,-53.8333,13.24,75,100,4.59,UY,1683983726
362,mount gambier,-37.8333,140.7667,8.7,76,0,2.35,AU,1683983727
363,sao jose da coroa grande,-8.8978,-35.1478,28.22,66,80,2.76,BR,1683983727
364,saryozek,44.3583,77.9753,18.86,55,100,2.89,KZ,1683983727
365,dubbo,-32.25,148.6167,14.07,67,1,4.12,AU,1683983727
366,swan hill,-35.3378,143.5544,11.51,63,0,2.28,AU,1683983727
367,bairnsdale,-37.8333,147.6167,7.25,95,8,1.47,AU,1683983728
368,glenvale,-27.5648,151.9076,12.16,85,4,1.34,AU,1683983728
369,crane,31.3974,-102.3501,16.95,86,98,3.54,US,1683983729
370,koulamoutou,-1.1303,12.4736,33.82,47,99,1.16,GA,1683983729
371,ancud,-41.8697,-73.8203,12.94,94,100,5.54,CL,1683983729
372,norilsk,69.3535,88.2027,-9.21,87,99,4.21,RU,1683983729
373,khovd,48.0056,91.6419,17.16,33,95,6.72,MN,1683983729
374,puerto san jose,13.9256,-90.8244,27.67,73,7,1.33,GT,1683983730
375,laojunmiao,39.8333,97.7333,17.3,16,100,4.8,CN,1683983730
376,krasnyye baki,57.131,45.1599,13.68,70,100,5.45,RU,1683983730
377,tosontsengel,48.7567,98.2839,8.31,56,96,2.71,MN,1683983731
378,mount pearl,47.5166,-52.7813,12.2,37,11,4.47,CA,1683983731
379,vylkove,45.4021,29.586,17.31,46,100,3.93,UA,1683983731
380,zelzate,51.1989,3.8106,23.88,73,2,3.58,BE,1683983731
381,wynyard,-41.0,145.7167,6.66,85,1,1.65,AU,1683983731
382,san julian,21.0167,-102.1667,15.83,35,36,1.52,MX,1683983732
383,broken hill,-31.95,141.4333,15.54,41,46,4.39,AU,1683983732
384,biltine,14.5333,20.9167,40.91,11,48,4.28,TD,1683983732
385,chul'man,56.8479,124.9104,-0.5,98,100,0.68,RU,1683983732
386,kindu,-2.95,25.95,34.3,42,94,0.54,CD,1683983733
387,ciudad bolivar,8.1222,-63.5497,29.68,56,33,4.71,VE,1683983733
388,kununurra,-15.7667,128.7333,15.99,72,28,0.0,AU,1683983733
389,yanchep,-31.55,115.6833,16.08,66,29,4.54,AU,1683983734
390,san patricio,28.017,-97.5169,22.92,81,100,6.21,US,1683983734
391,bykovo,55.6361,38.0803,22.85,23,0,6.0,RU,1683983734
392,baranchinskiy,58.1617,59.6991,16.48,37,100,2.1,RU,1683983734
393,juegang,32.3174,121.1855,18.78,71,100,3.66,CN,1683983735
394,faya-largeau,17.9257,19.1043,41.47,9,11,6.34,TD,1683983735
395,ola,59.5833,151.2833,0.08,89,100,1.46,RU,1683983736
396,macka,40.8186,39.6136,10.64,96,100,1.59,TR,1683983736
397,auki,-8.7676,160.7034,26.21,86,99,1.08,SB,1683983736
398,ponta delgada,37.7333,-25.6667,20.4,73,20,4.63,PT,1683983439
399,kyzyl-mazhalyk,51.1333,90.6,12.93,41,89,3.85,RU,1683983737
400,kantunilkin,21.0917,-87.45,27.41,77,11,2.66,MX,1683983737
401,caleta de carquin,-11.0925,-77.6267,21.03,83,71,1.75,PE,1683983737
402,sake,-1.5736,29.045,22.05,84,86,1.23,CD,1683983737
403,villa dolores,-31.9459,-65.1896,18.51,54,88,0.83,AR,1683983672
404,tsetserleg,47.475,101.4542,12.08,32,100,1.8,MN,1683983738
405,myrina,39.8797,25.0742,17.58,32,0,3.6,GR,1683983738
406,kerema,-7.9631,145.7785,26.38,90,100,2.79,PG,1683983738
407,matonga,-2.3833,34.0833,28.49,43,15,1.93,TZ,1683983739
408,sorong,-0.8833,131.25,27.89,80,100,2.12,ID,1683983739
409,coari,-4.085,-63.1414,26.29,87,59,1.2,BR,1683983672
410,brockport,43.2137,-77.9392,18.35,57,100,3.42,US,1683983739
411,homer,59.6425,-151.5483,7.11,76,0,6.26,US,1683983739
412,pasuquin,18.3328,120.6177,27.23,82,57,2.63,PH,1683983740
413,svit,49.0601,20.2069,11.17,64,75,3.6,SK,1683983740
414,mareeba,-17.0,145.4333,21.4,84,93,1.38,AU,1683983740
415,peterhead,57.5058,-1.7981,19.14,85,100,6.74,GB,1683983635
416,wewak,-3.5534,143.6268,27.28,85,92,2.57,PG,1683983740
417,gazojak,41.1875,61.4036,32.4,18,3,5.58,TM,1683983741
418,camocim,-2.9022,-40.8411,28.19,78,13,4.33,BR,1683983741
419,khorinsk,52.1657,109.7726,5.69,49,0,1.92,RU,1683983741
420,puerto deseado,-47.7503,-65.8938,8.8,74,100,9.9,AR,1683983741
421,moyynkum,44.2914,72.9469,30.16,22,11,3.4,KZ,1683983742
422,ravar,31.2656,56.8055,33.05,10,53,6.19,IR,1683983742
423,barcelos,41.5388,-8.6151,22.18,39,6,3.91,PT,1683983742
424,albertina,-22.2008,-46.6158,17.42,61,0,0.69,BR,1683983742
425,forssa,60.8146,23.6215,24.26,34,55,2.07,FI,1683983567
426,vicuna,-30.0319,-70.7081,9.85,27,8,0.21,CL,1683983743
427,pacific grove,36.6177,-121.9166,11.82,95,100,0.0,US,1683983743
428,enriquillo,17.9,-71.2333,27.82,69,100,5.58,DO,1683983744
429,calvinia,-31.4707,19.776,12.43,54,84,10.7,ZA,1683983744
430,tasqala,51.1167,50.3167,18.79,39,67,4.91,KZ,1683983744
431,mili,6.0815,171.735,28.23,81,100,7.75,MH,1683983745
432,maragogi,-9.0122,-35.2225,28.02,67,96,2.57,BR,1683983745
433,gagliano del capo,39.8442,18.3695,17.12,93,100,10.09,IT,1683983745
434,conde,-7.2597,-34.9075,28.7,74,75,4.12,BR,1683983745
435,tionk essil,12.7856,-16.5217,33.34,35,98,3.75,SN,1683983746
436,tromso,69.6496,18.957,10.21,66,75,12.35,NO,1683983746
437,hailun,47.45,126.9333,13.58,74,51,1.6,CN,1683983746
438,guadalupe y calvo,26.1,-106.9667,4.72,27,0,2.89,MX,1683983747
439,ambon,-3.6954,128.1814,25.69,15,40,2.57,ID,1683983747
440,danilovka,50.3557,44.1168,18.65,49,97,3.16,RU,1683983748
441,celestun,20.8667,-90.4,26.32,78,6,6.8,MX,1683983748
442,tual,-5.6667,132.75,28.39,82,97,8.01,ID,1683983748
443,porto novo,6.4965,2.6036,33.36,55,85,4.72,BJ,1683983748
444,lembeni,-3.7833,37.6167,24.66,62,100,3.4,TZ,1683983749
445,la ronge,55.1001,-105.2842,8.14,53,0,0.51,CA,1683983749
446,wakkanai,45.4094,141.6739,8.78,80,100,7.2,JP,1683983594
447,marsh harbour,26.5412,-77.0636,23.95,66,100,7.14,BS,1683983749
448,altamira,-3.2033,-52.2064,27.29,84,93,0.99,BR,1683983750
449,bahia de kino,28.8333,-111.9333,20.89,58,0,1.35,MX,1683983750
450,east london,-33.0153,27.9116,14.52,94,100,3.6,ZA,1683983543
451,bandundu,-3.3167,17.3667,31.97,56,97,1.37,CD,1683983751
452,la rinconada,37.4873,-5.9826,27.1,22,0,3.6,ES,1683983751
453,yerofey pavlovich,53.9667,121.9667,7.11,43,100,2.63,RU,1683983751
454,nha trang,12.25,109.1833,30.0,85,99,1.8,VN,1683983473
455,alofi,-19.0595,-169.9187,25.22,80,71,5.09,NU,1683983752
456,bel ombre,-4.6167,55.4167,29.91,74,40,4.12,SC,1683983752
457,mae hong son,19.3003,97.9685,24.19,96,89,0.78,TH,1683983752
458,timbuktu,16.7735,-3.0074,41.88,15,8,4.35,ML,1683983753
459,salalah,17.0151,54.0924,32.05,62,0,6.69,OM,1683983671
460,kerikeri,-35.2268,173.9474,9.95,93,81,1.56,NZ,1683983480
461,inhambane,-23.865,35.3833,26.99,83,40,3.09,MZ,1683983753
462,monrovia,6.3005,-10.7969,31.87,66,99,1.86,LR,1683983753
463,saint-joseph,-21.3667,55.6167,27.21,81,36,2.51,RE,1683983754
464,nuku'alofa,-21.1333,-175.2,24.19,78,75,6.17,TO,1683983478
465,kingston,17.997,-76.7936,28.47,76,78,0.45,JM,1683983754
466,strzelin,50.7816,17.0648,19.17,48,73,3.19,PL,1683983754
467,coffeyville,37.0373,-95.6164,18.25,92,75,4.12,US,1683983755
468,smolensk,55.0,33.0,21.27,29,20,3.88,RU,1683983529
469,ridgecrest,35.6225,-117.6709,19.12,27,0,1.79,US,1683983563
470,taseyevo,57.2169,94.8978,1.82,42,86,3.86,RU,1683983755
471,nobres,-14.7203,-56.3275,24.96,63,13,2.68,BR,1683983756
472,yuzhno-kurilsk,44.0306,145.8556,7.41,79,5,4.47,RU,1683983756
473,sete lagoas,-19.4658,-44.2467,23.49,57,0,1.93,BR,1683983756
474,lib,8.3122,167.3766,27.85,83,100,8.67,MH,1683983756
475,nueva gerona,21.8833,-82.8,27.96,69,58,4.99,CU,1683983756
476,labrador city,52.9463,-66.9114,1.95,93,100,4.63,CA,1683983757
477,pea ridge,38.414,-82.3199,20.7,96,100,0.45,US,1683983757
478,santana do paraiso,-19.3636,-42.5686,18.58,94,99,0.95,BR,1683983757
479,tshabong,-26.05,22.45,30.09,13,98,8.67,BW,1683983757
480,ad dabbah,18.05,30.95,42.26,7,9,7.46,SD,1683983758
481,guerrero negro,27.9769,-114.0611,14.96,79,99,5.73,MX,1683983758
482,usogorsk,63.4106,48.6872,5.71,95,100,4.0,RU,1683983758
483,ilhabela,-23.7781,-45.3581,20.19,73,27,0.4,BR,1683983759
484,lauro de freitas,-12.8944,-38.3272,30.01,70,75,2.06,BR,1683983514
485,al bayda',32.7627,21.7551,25.58,29,96,3.83,LY,1683983701
486,portland,45.5234,-122.6762,16.69,76,20,0.89,US,1683983545
487,san fernando,15.0286,120.6898,29.85,78,100,1.51,PH,1683983721
488,waddan,29.1614,16.139,34.63,11,100,5.48,LY,1683983760
489,nizhnevartovsk,60.9344,76.5531,10.01,27,0,4.02,RU,1683983556
490,kourou,5.1552,-52.6478,26.03,74,52,3.39,GF,1683983761
491,santa cruz,-17.8,-63.1667,22.7,64,41,5.14,BO,1683983761
492,bhamo,24.2667,97.2333,21.78,86,100,0.56,MM,1683983762
493,nakamura,32.9833,132.9333,15.46,97,100,2.48,JP,1683983763
494,plettenberg bay,-34.0527,23.3716,14.25,81,100,4.14,ZA,1683983763
495,nizhneudinsk,54.9076,99.0276,2.86,50,97,2.92,RU,1683983763
496,fort-shevchenko,44.5086,50.263,16.49,60,100,5.34,KZ,1683983763
497,morro do chapeu,-11.55,-41.1561,22.68,76,82,2.56,BR,1683983764
498,zvezdnyy,57.7325,56.3147,18.33,42,100,2.55,RU,1683983764
499,ndende,-2.4008,11.3581,32.92,56,99,1.12,GA,1683983765
500,arkhangel'sk,64.5401,40.5433,10.06,54,18,4.03,RU,1683983465
501,kangdong-up,39.1425,126.0961,14.15,80,100,0.73,KP,1683983765
502,tomatlan,19.9333,-105.25,20.41,65,94,1.24,MX,1683983765
503,pedro juan caballero,-22.5472,-55.7333,15.98,51,0,3.6,PY,1683983765
504,sao felipe,-14.8167,-41.3833,28.1,55,22,2.29,BR,1683983766
505,abu al matamir,30.9102,30.1744,25.53,30,1,7.8,EG,1683983766
506,noumea,-22.2763,166.4572,24.44,99,99,6.34,NC,1683983107
507,isla mujeres,21.2311,-86.731,28.03,79,7,5.88,MX,1683983601
508,viqueque,-8.8673,126.3658,22.93,73,96,0.74,TL,1683983766
509,merizo village,13.2658,144.6691,28.32,95,9,2.5,GU,1683983767
510,knyaze-volkonskoye,48.4642,135.4567,19.19,78,100,2.0,RU,1683983767
511,robertsport,6.7533,-11.3686,28.92,73,100,2.72,LR,1683983767
512,kapa'a,22.0752,-159.319,20.05,87,40,3.6,US,1683983768
513,aykhal,66.0,111.5,-3.45,96,100,4.99,RU,1683983689
514,kupang,-10.1667,123.5833,24.32,78,20,2.06,ID,1683983768
515,victorica,-36.2151,-65.4359,18.08,41,100,4.87,AR,1683983768
516,santiago de cao,-7.9589,-79.2392,22.07,88,100,2.06,PE,1683983769
517,muisne,0.6,-80.0333,26.76,87,100,2.08,EC,1683983769
518,yorosso,12.3536,-4.7761,38.76,24,71,2.64,ML,1683983769
519,balabac,7.9868,117.0645,28.58,78,10,2.75,PH,1683983769
520,san pedro carcha,15.4833,-90.2667,18.34,94,40,0.0,GT,1683983770
521,murghob,38.1702,73.9667,5.91,40,100,2.73,TJ,1683983770
522,mamanguape,-6.8386,-35.1261,29.18,60,24,3.14,BR,1683983770
523,robit,12.0167,39.6333,27.96,40,71,3.47,ET,1683983771
524,turpan,42.9333,89.1667,31.43,18,100,8.38,CN,1683983751
525,mont-dore,-22.2833,166.5833,24.44,99,99,5.67,NC,1683983607
526,bani suwayf,29.0744,31.0979,30.81,17,78,7.39,EG,1683983632
527,chapada dos guimaraes,-15.4606,-55.7497,19.81,68,84,1.79,BR,1683983772
528,urangan,-25.3,152.9,19.83,81,13,6.88,AU,1683983772
529,chynadiyovo,48.4818,22.8217,14.22,83,100,1.51,UA,1683983772
530,parabel',58.6978,81.4825,5.63,27,6,1.61,RU,1683983772
531,cartagena del chaira,1.3349,-74.8429,22.85,99,100,0.54,CO,1683983773
532,tambura,5.6,27.4667,34.33,35,100,2.51,SS,1683983773
533,saurimo,-9.6608,20.3916,29.33,35,86,1.64,AO,1683983773
534,christchurch,-43.5333,172.6333,11.08,89,100,2.57,NZ,1683983667
535,amas,7.0569,124.9839,25.16,89,100,1.4,PH,1683983773
536,dzilam gonzalez,21.2833,-88.9333,26.42,81,20,3.84,MX,1683983774
537,cabo san lucas,22.8909,-109.9124,18.17,63,0,3.6,MX,1683983774
538,wenatchee,47.4235,-120.3103,15.22,58,0,3.09,US,1683983774
539,sukumo,32.9333,132.7333,15.3,97,100,3.35,JP,1683983775
540,pundong,-7.9522,110.3486,25.08,77,10,4.46,ID,1683983775
541,marechal deodoro,-9.7103,-35.895,28.67,59,51,3.17,BR,1683983775
542,bandarbeyla,9.4942,50.8122,29.4,74,93,9.55,SO,1683983775
543,ulanhot,46.0833,122.0833,14.76,47,0,3.93,CN,1683983776
544,newnan,33.3807,-84.7997,20.22,86,100,2.06,US,1683983529
545,strathfieldsaye,-36.8,144.3667,11.25,54,0,2.16,AU,1683983776
546,coquimbo,-29.9533,-71.3436,13.85,100,100,2.06,CL,1683983571
547,punta cana,18.5818,-68.4043,28.87,70,40,5.14,DO,1683983521
548,zhenlai,45.8495,123.2973,15.06,50,0,3.67,CN,1683983777
549,arraial do cabo,-22.9661,-42.0278,20.92,78,40,1.54,BR,1683983704
550,hirara,24.8,125.2833,24.15,83,100,4.63,JP,1683983777
551,baker city,44.7749,-117.8344,13.69,87,0,0.0,US,1683983778
552,papao,-17.75,-149.55,24.82,81,14,5.01,PF,1683983778
553,dunedin,-45.8742,170.5036,11.0,73,100,0.89,NZ,1683983778
554,el abiodh sidi cheikh,32.893,0.5484,25.88,22,68,5.49,DZ,1683983778
555,mek'ele,13.4967,39.4753,25.72,34,92,6.23,ET,1683983779
556,shakawe,-18.3667,21.85,32.66,14,3,1.94,BW,1683983779
557,keflavik,64.0049,-22.5624,7.24,81,100,6.69,IS,1683983779
558,lu-uk,5.9684,121.3122,27.71,80,87,0.46,PH,1683983780
559,tsiombe,-25.3,45.4833,26.92,57,2,5.1,MG,1683983780
560,guider,9.9342,13.9486,38.7,26,100,3.1,CM,1683983780
561,kasane,-17.8167,25.15,31.81,16,2,1.88,BW,1683983780
562,narman,40.3465,41.8703,12.85,75,100,3.46,TR,1683983781
563,luza,60.6308,47.2512,9.35,88,100,4.73,RU,1683983781
564,micheweni,-4.9667,39.8333,28.8,67,27,5.01,TZ,1683983781
565,yangliuqing,39.1375,116.9997,19.97,29,100,3.28,CN,1683983743
566,kutum,14.2,24.6667,36.41,10,8,6.78,SD,1683983781
567,sao joao da barra,-21.6403,-41.0511,23.05,71,86,6.19,BR,1683983782
568,pervomayskiy,53.2485,40.2871,20.54,38,22,4.96,RU,1683983782
569,nantucket,41.2835,-70.0995,23.08,77,0,6.69,US,1683983782
570,lemvig,56.5486,8.3102,21.78,85,9,4.49,DK,1683983782
571,strezhevoy,60.7333,77.5889,7.12,24,12,1.89,RU,1683983536
572,gemena,3.25,19.7667,35.69,35,99,1.54,CD,1683983783
573,itaueira,-7.6033,-43.0256,33.3,41,58,1.61,BR,1683983783
574,puerto real,36.5282,-6.1901,26.09,19,0,5.14,ES,1683983783
575,blackwater,-23.5833,148.8833,16.65,80,0,4.07,AU,1683983783
576,mucur,39.0615,34.3829,18.01,53,69,4.0,TR,1683983783
577,tofol,5.3248,163.0078,28.39,78,100,4.79,FM,1683983784
578,jiazi,22.8779,116.067,21.81,85,100,1.18,CN,1683983784
579,kasongo-lunda,-6.4667,16.8167,33.33,41,100,1.1,CD,1683983784
580,patterson,37.4716,-121.1297,15.55,85,6,1.74,US,1683983785
581,safi,32.1667,-8.8333,25.85,24,0,6.48,MA,1683983785
582,tsiroanomandidy,-18.7667,46.0333,25.74,57,31,1.73,MG,1683983785
583,korenevo,55.6719,38.0078,22.86,23,0,6.0,RU,1683983786
584,vikulovo,56.8167,70.6107,11.43,36,100,3.91,RU,1683983786
585,akom ii,2.7833,10.5667,29.35,62,100,1.19,CM,1683983786
586,weno,7.4515,151.8468,26.97,94,20,0.0,FM,1683983786
587,peniche,39.3558,-9.3811,22.94,47,0,8.48,PT,1683983787
