City_ID,City,Lat,Lng,Max Temp,Humidity,Cloudiness,Wind Speed,Country,Date
0,farasan,16.7022,42.1183,30.33,74,0,4.42,SA,1684034372
1,ormara,25.2088,64.6357,28.21,85,0,4.69,PK,1684034372
2,carnarvon,-24.8667,113.6333,21.25,45,34,6.95,AU,1684034373
3,rongelap,11.1635,166.8941,27.85,79,23,6.89,MH,1684034373
4,blackmans bay,-43.0167,147.3167,15.07,59,83,1.91,AU,1684034373
5,waitangi,-43.9535,-176.5597,13.23,78,42,4.1,NZ,1684034373
6,tura,25.5198,90.2201,31.19,34,88,0.74,IN,1684034373
7,west island,-12.1568,96.8225,28.99,79,75,4.63,CC,1684034374
8,mayo-belwa,9.05,12.05,26.68,66,100,1.73,NG,1684034374
9,port-aux-francais,-49.35,70.2167,3.22,61,40,4.84,TF,1684034374
10,port elizabeth,-33.918,25.5701,16.16,94,75,6.17,ZA,1684034374
11,kailua-kona,19.6406,-155.9956,27.98,62,40,6.17,US,1684034375
12,yuzhno-kurilsk,44.0306,145.8556,10.15,87,100,4.77,RU,1684034375
13,lihue,21.9789,-159.3672,25.58,86,100,6.17,US,1684034375
14,broome,42.2506,-75.833,13.36,69,84,0.45,US,1684034375
15,utrik,11.2278,169.8474,27.58,80,6,7.07,MH,1684034376
16,tiksi,71.6872,128.8694,-6.92,66,50,2.74,RU,1684034376
17,brookings,44.3114,-96.7984,14.19,94,100,8.23,US,1684034376
18,lampa,-33.2833,-70.9,16.15,62,0,1.54,CL,1684034376
19,badger,64.8,-147.5333,18.14,29,0,7.72,US,1684034140
20,iqaluit,63.7506,-68.5145,-5.15,80,75,1.03,CA,1684034377
21,bethel,41.3712,-73.414,20.05,40,0,4.12,US,1684034377
22,ghadamis,30.1337,9.5007,30.26,20,85,8.53,LY,1684034377
23,bredasdorp,-34.5322,20.0403,13.62,72,89,5.61,ZA,1684034377
24,khandyga,62.6667,135.6,7.05,58,89,2.07,RU,1684034377
25,puerto ayora,-0.7393,-90.3518,26.97,94,99,3.13,EC,1684034378
26,casper,42.8666,-106.3131,8.73,91,100,6.17,US,1684034378
27,adamstown,-25.066,-130.1015,22.79,74,100,8.62,PN,1684034378
28,stanley,54.868,-1.6985,7.51,92,100,1.74,GB,1684034378
29,corinto,37.9407,22.9573,14.94,82,63,1.67,GR,1684034378
30,kapuskasing,49.4169,-82.4331,7.05,42,20,2.57,CA,1684034379
31,gadzhiyevo,69.2551,33.3362,4.06,98,99,4.76,RU,1684034379
32,kapa'a,22.0752,-159.319,25.99,86,100,6.17,US,1684034379
33,arkhangel'sk,64.5401,40.5433,4.82,72,7,1.48,RU,1684034379
34,senanga,-16.1167,23.2667,13.63,53,23,2.36,ZM,1684034380
35,sao joao da barra,-21.6403,-41.0511,20.08,78,91,3.24,BR,1684034272
36,castillos,-34.1667,-53.8333,12.28,94,100,2.32,UY,1684034380
37,haiku-pauwela,20.9219,-156.3051,24.01,72,40,5.14,US,1684034380
38,viedma,-40.8135,-62.9967,14.88,59,100,3.11,AR,1684034142
39,invercargill,-46.4,168.35,8.34,95,99,1.34,NZ,1684034100
40,ushuaia,-54.8,-68.3,4.81,75,20,0.51,AR,1684034381
41,longyearbyen,78.2186,15.6401,-2.67,95,100,7.05,SJ,1684034381
42,tecate,32.5667,-116.6333,19.19,58,0,2.08,MX,1684034381
43,kill devil hills,36.0307,-75.676,22.77,78,100,8.23,US,1684034382
44,ishikawa,26.4233,127.8214,23.98,58,75,4.12,JP,1684034382
45,san antonio de pale,-1.4014,5.6325,27.42,82,68,3.95,GQ,1684034382
46,la'ie,21.6477,-157.9253,26.17,68,32,0.45,US,1684034383
47,aswan,24.0934,32.907,23.69,22,80,4.49,EG,1684034383
48,bathsheba,13.2167,-59.5167,27.34,78,40,5.14,BB,1684034383
49,ribeira grande,38.5167,-28.7,17.1,86,93,0.89,PT,1684034383
50,yellowknife,62.456,-114.3525,22.29,30,75,2.57,CA,1684034384
51,cromwell,41.5951,-72.6454,20.16,40,0,3.6,US,1684034384
52,galveston,29.3669,-94.9669,23.33,92,20,7.72,US,1684034384
53,grytviken,-54.2811,-36.5092,0.33,86,100,3.25,GS,1684034303
54,grand-bourg,15.8835,-61.3148,25.97,75,80,7.1,GP,1684034385
55,santa cruz cabralia,-16.2781,-39.0247,24.13,88,75,1.03,BR,1684034385
56,muromtsevo,56.3724,75.2418,7.63,31,100,3.95,RU,1684034385
57,avarua,-21.2078,-159.775,22.03,100,75,4.12,CK,1684034087
58,yelizovo,53.1873,158.3805,16.08,21,0,5.0,RU,1684034385
59,nahiyat ash shinafiyah,31.5874,44.6602,25.38,30,0,5.24,IQ,1684034386
60,puerto natales,-51.7236,-72.4875,4.67,91,91,2.43,CL,1684034386
61,champerico,14.3,-91.9167,28.61,71,7,1.4,GT,1684034386
62,chibougamau,49.9168,-74.3659,2.79,87,100,4.63,CA,1684034386
63,vila franca do campo,37.7167,-25.4333,15.23,86,87,2.2,PT,1684034386
64,fengrun,39.8333,118.1167,26.63,25,79,5.55,CN,1684034088
65,albany,42.6001,-73.9662,15.44,44,5,2.96,US,1684034387
66,westport,41.1415,-73.3579,20.97,36,0,2.57,US,1684034387
67,pacocha,-17.5833,-71.3333,18.64,91,29,0.87,PE,1684034387
68,quelimane,-17.8786,36.8883,19.41,93,5,0.63,MZ,1684034388
69,college,64.8569,-147.8028,18.18,29,20,7.72,US,1684034388
70,georgetown,5.4112,100.3354,32.97,67,20,1.54,MY,1684034171
71,saint-joseph,-21.3667,55.6167,22.21,80,22,2.41,RE,1684034389
72,lorengau,-2.0226,147.2712,30.22,65,11,2.45,PG,1684034389
73,gorom-gorom,14.4439,-0.2361,32.98,35,24,2.72,BF,1684034389
74,olonkinbyen,70.9221,-8.7187,0.86,99,100,6.67,SJ,1684034390
75,kiunga,-6.1219,141.2906,28.82,84,92,1.0,PG,1684034390
76,flying fish cove,-10.4217,105.6791,27.82,74,40,7.72,CX,1684034343
77,anadyr,64.75,177.4833,0.28,100,100,8.0,RU,1684034134
78,guadalajara de buga,3.9009,-76.2978,23.84,95,100,0.97,CO,1684034378
79,klyuchi,52.2667,79.1667,14.17,46,100,3.8,RU,1684034391
80,enewetak,11.3474,162.3373,27.86,76,14,6.31,MH,1684034392
81,suva,-18.1416,178.4415,25.71,83,75,3.09,FJ,1684034344
82,badiyah,22.45,58.8,30.88,42,0,2.05,OM,1684034159
83,perstorp,56.1383,13.3948,11.57,76,55,2.06,SE,1684034392
84,namibe,-15.1961,12.1522,21.33,78,35,3.69,AO,1684034117
85,onega,63.9061,38.1404,5.03,76,7,1.87,RU,1684034107
86,irymple,-34.25,142.1667,22.28,34,0,1.34,AU,1684034393
87,voznesenskoye,54.89,42.7569,8.15,94,8,3.96,RU,1684034393
88,kuqa,41.7278,82.9364,25.29,19,100,2.65,CN,1684034148
89,margaret river,-33.95,115.0667,16.8,63,81,3.41,AU,1684034394
90,tazovsky,67.4667,78.7,-7.72,90,100,7.99,RU,1684034394
91,manaure,11.7751,-72.4445,28.04,73,91,5.78,CO,1684034394
92,bouar,5.934,15.596,19.84,91,100,0.26,CF,1684034395
93,uturoa,-16.7333,-151.4333,27.47,72,3,2.12,PF,1684034395
94,constantia,44.1833,28.65,6.5,60,72,1.66,RO,1684034395
95,osceola,28.042,-81.1242,24.88,78,8,2.8,US,1684034396
96,bilibino,68.0546,166.4372,-5.37,56,2,1.1,RU,1684034396
97,vorgashor,67.5833,63.95,-6.99,92,100,3.63,RU,1684034123
98,edinburgh of the seven seas,-37.0676,-12.3116,17.95,97,100,9.24,SH,1684034397
99,siocon,7.7061,122.1353,31.46,64,100,1.24,PH,1684034397
100,medianeira,-25.2953,-54.0939,10.66,78,0,1.29,BR,1684034397
101,debre tabor,11.85,38.0167,15.96,45,100,1.33,ET,1684034397
102,bagnacavallo,44.4125,11.9771,14.38,92,100,0.81,IT,1684034398
103,ballito,-29.539,31.2144,17.08,88,75,1.54,ZA,1684034398
104,sarakhs,36.5449,61.1577,28.1,18,0,2.29,IR,1684034333
105,whitehorse,60.7161,-135.0538,14.45,33,40,5.66,CA,1684034398
106,port alfred,-33.5906,26.891,16.21,91,100,2.68,ZA,1684034399
107,al jawf,29.5,38.75,16.93,51,17,4.43,SA,1684034399
108,isafjordur,66.0755,-23.124,2.87,99,100,6.79,IS,1684034399
109,kirtland,36.7342,-108.3598,13.61,62,0,6.69,US,1684034400
110,bodaybo,57.8506,114.1933,3.89,61,100,3.96,RU,1684034400
111,kushk,33.2957,61.9522,23.41,20,0,3.44,AF,1684034400
112,ancud,-41.8697,-73.8203,12.71,91,100,3.73,CL,1684034400
113,mount isa,-20.7333,139.5,26.87,39,80,4.12,AU,1684034401
114,howard springs,-12.497,131.047,31.57,60,38,2.52,AU,1684034401
115,port douglas,-16.4833,145.4667,26.07,69,99,6.57,AU,1684034401
116,vilyuysk,63.7553,121.6247,8.39,46,100,3.53,RU,1684034401
117,nova sintra,14.8667,-24.7167,19.9,81,32,6.25,CV,1684034402
118,larroque,-33.036,-59.0013,15.31,71,10,3.1,AR,1684034402
119,xilin hot,43.9667,116.0333,21.45,23,100,7.48,CN,1684034136
120,thunder bay,48.4001,-89.3168,12.99,50,75,2.57,CA,1684034224
121,acarau,-2.8856,-40.12,25.92,85,53,4.17,BR,1684034218
122,lebu,-37.6167,-73.65,11.76,91,100,3.45,CL,1684034403
123,magole,-6.3667,37.3667,20.47,95,100,0.57,TZ,1684034403
124,toliara,-23.35,43.6667,21.48,81,26,2.76,MG,1684034404
125,crane,31.3974,-102.3501,18.68,61,91,2.82,US,1684034404
126,gorontalo,0.5412,123.0595,31.71,62,43,1.93,ID,1684034404
127,old town,50.087,14.4202,10.5,87,0,2.57,CZ,1684034405
128,atar,20.5169,-13.0499,30.23,17,30,3.94,MR,1684034405
129,qaqortoq,60.7167,-46.0333,0.6,85,100,0.58,GL,1684034405
130,susuman,62.7833,148.1667,-1.2,83,99,2.12,RU,1684034405
131,nova vicosa,-17.8919,-39.3719,23.81,81,74,3.72,BR,1684034406
132,hovd,48.0056,91.6419,19.66,25,13,5.55,MN,1684034406
133,xiaoweizhai,26.1903,107.5125,24.34,56,100,0.38,CN,1684034407
134,hammerfest,70.6634,23.6821,5.25,93,100,8.23,NO,1684034407
135,amursk,50.2261,136.8994,19.78,51,91,7.27,RU,1684034211
136,sechura,-5.5569,-80.8222,25.64,72,0,5.87,PE,1684034408
137,hauterive,46.0901,3.4459,6.42,98,30,0.42,FR,1684034408
138,pangody,65.85,74.4859,-6.98,90,58,6.3,RU,1684034408
139,jamestown,42.097,-79.2353,14.8,68,0,1.54,US,1684034210
140,korla,41.7597,86.1469,25.49,21,47,4.24,CN,1684034142
141,napoleon,41.3923,-84.1252,18.46,78,100,3.89,US,1684034409
142,northam,51.0333,-4.2167,10.34,97,93,1.07,GB,1684034409
143,port mathurin,-19.6833,63.4167,25.51,74,4,6.5,MU,1684034409
144,qalat,32.1058,66.9083,21.12,19,0,0.98,AF,1684034410
145,matane,48.8286,-67.522,6.02,65,99,7.62,CA,1684034410
146,grand falls-windsor,48.9332,-55.6649,7.5,91,100,0.89,CA,1684034410
147,glazunovka,52.4986,36.3275,9.39,81,5,2.94,RU,1684034410
148,saint-pierre,-21.3393,55.4781,22.82,64,0,2.06,RE,1684034410
149,coahuayana de hidalgo,18.7,-103.6583,23.8,72,0,0.86,MX,1684034411
150,codrington,-38.2667,141.9667,18.15,46,15,3.2,AU,1684034411
151,selfoss,63.9331,-20.9971,5.47,95,100,10.42,IS,1684034411
152,galliano,29.4422,-90.2992,27.0,83,40,2.06,US,1684034412
153,ust'-kalmanka,52.1207,83.305,9.51,77,100,4.23,RU,1684034412
154,westerland,54.9079,8.3033,8.9,74,100,4.11,DE,1684034413
155,vila velha,-20.3297,-40.2925,22.19,80,75,2.06,BR,1684034413
156,vilyuchinsk,52.9306,158.4028,16.15,64,15,4.17,RU,1684034413
157,geraldton,-28.7667,114.6,21.23,52,0,5.14,AU,1684034180
158,alpatovo,43.7028,45.2415,9.93,95,100,1.74,RU,1684034413
159,moissac,44.1024,1.0945,11.93,98,72,3.8,FR,1684034414
160,saint-francois,46.4154,3.9054,9.69,93,0,3.09,FR,1684034414
161,amga,60.8953,131.9608,10.89,46,89,2.3,RU,1684034414
162,curaca,-8.9903,-39.9094,26.11,67,97,5.74,BR,1684034414
163,remire-montjoly,4.9167,-52.2667,24.02,100,20,0.51,GF,1684034290
164,oranjemund,-28.55,16.4333,12.26,71,0,3.53,NA,1684034415
165,ocean city,39.2776,-74.5746,17.77,91,100,0.45,US,1684034415
166,fort bragg,35.139,-79.006,24.08,69,20,4.63,US,1684034327
167,borba,-4.3878,-59.5939,23.49,95,32,1.02,BR,1684034415
168,guerrero negro,27.9769,-114.0611,15.33,83,0,6.63,MX,1684034415
169,luderitz,-26.6481,15.1594,12.36,65,0,5.59,NA,1684034416
170,kununurra,-15.7667,128.7333,30.99,29,22,5.14,AU,1684034416
171,yeppoon,-23.1333,150.7333,19.88,73,39,8.04,AU,1684034416
172,l'aquila,42.365,13.3935,11.29,95,100,0.82,IT,1684034375
173,petropavlovsk-kamchatsky,53.0452,158.6483,15.33,21,0,5.0,RU,1684034417
174,holualoa,19.6228,-155.9522,25.91,63,40,6.17,US,1684034417
175,la ronge,55.1001,-105.2842,18.14,32,100,2.06,CA,1684034417
176,monte alegre,-2.0078,-54.0692,24.0,94,93,1.04,BR,1684034275
177,goure,13.9835,10.2704,31.07,13,100,3.73,NE,1684034418
178,tamandare,-8.7597,-35.1047,26.42,76,88,2.93,BR,1684034258
179,lambarene,-0.7001,10.2406,24.21,97,100,0.34,GA,1684034418
180,thompson,55.7435,-97.8558,17.09,31,40,2.06,CA,1684034418
181,burang,30.25,81.1667,1.87,64,56,1.67,CN,1684034418
182,nedryhayliv,50.834,33.8763,10.53,88,77,2.69,UA,1684034419
183,udachny,66.4167,112.4,0.1,96,100,4.48,RU,1684034419
184,pathein,16.7833,94.7333,29.81,73,100,10.82,MM,1684034419
185,lakatoro,-16.0999,167.4164,27.28,78,95,7.3,VU,1684034419
186,beau vallon,-20.4189,57.6953,22.9,94,40,1.54,MU,1684034420
187,christchurch,-43.5333,172.6333,15.79,77,83,5.14,NZ,1684034021
188,nizhniy kuranakh,58.8353,125.4869,4.5,97,100,0.59,RU,1684034420
189,rio grande,-32.035,-52.0986,15.41,81,76,5.67,BR,1684034420
190,ilulissat,69.2167,-51.1,-2.99,93,100,4.63,GL,1684034420
191,el nido,11.1858,119.3956,30.45,65,40,1.09,PH,1684034421
192,richards bay,-28.783,32.0377,19.47,79,77,3.73,ZA,1684034421
193,jolo,6.05,121.0167,31.41,62,61,0.94,PH,1684034421
194,buenaventura,3.8801,-77.0312,25.2,93,100,1.32,CO,1684034421
195,hawaiian paradise park,19.5933,-154.9731,25.96,74,75,4.12,US,1684034422
196,sao jose da coroa grande,-8.8978,-35.1478,26.58,75,90,3.1,BR,1684034422
197,olyokminsk,60.3736,120.4264,7.73,53,94,3.43,RU,1684034422
198,rosario oeste,-14.8361,-56.4275,21.69,75,77,1.27,BR,1684034422
199,saldanha,-33.0117,17.9442,13.39,79,0,7.58,ZA,1684034423
200,chonchi,-42.6128,-73.8092,13.95,98,100,1.63,CL,1684034423
201,dubove,48.1721,23.8895,5.9,91,10,2.07,UA,1684034423
202,wailua homesteads,22.0669,-159.378,25.24,86,100,6.17,US,1684034424
203,pyhajarvi,67.0701,27.2176,4.62,86,79,1.72,FI,1684034424
204,mount pearl,47.5166,-52.7813,7.2,97,100,9.77,CA,1684034220
205,shihezi,44.3,86.0333,26.96,27,51,2.5,CN,1684034144
206,praia da vitoria,38.7333,-27.0667,18.2,88,20,3.15,PT,1684034425
207,kuta,-8.7233,115.1723,28.97,65,40,6.26,ID,1684034425
208,chipinge,-20.1883,32.6236,12.56,92,0,1.57,ZW,1684034425
209,santa ana,33.7456,-117.8678,20.29,85,75,3.09,US,1684034285
210,lutjenburg,54.2919,10.5895,9.93,79,7,2.67,DE,1684034425
211,kalecik,40.0972,33.4083,10.95,79,3,1.94,TR,1684034426
212,lamu,-2.2717,40.902,26.12,85,92,4.79,KE,1684034426
213,kavaratti,10.5669,72.642,29.1,77,55,2.34,IN,1684034427
214,cabo san lucas,22.8909,-109.9124,23.67,56,0,5.14,MX,1684034427
215,port lincoln,-34.7333,135.8667,19.33,39,100,2.05,AU,1684034403
216,nuku'alofa,-21.1333,-175.2,24.19,73,75,6.17,TO,1684034427
217,dryden,49.7833,-92.7503,13.16,50,75,1.54,CA,1684034427
218,atafu village,-8.5421,-172.5159,28.59,77,29,3.65,TK,1684034428
219,talnakh,69.4865,88.3972,-5.44,92,100,3.94,RU,1684034428
220,new plymouth,-39.0667,174.0833,16.98,100,36,4.9,NZ,1684034403
221,dudinka,69.4058,86.1778,-5.21,92,100,2.1,RU,1684034429
222,el calafate,-50.3408,-72.2768,3.51,86,89,1.09,AR,1684034429
223,elizabeth city,36.2946,-76.2511,23.01,83,100,5.14,US,1684034429
224,flekkefjord,58.2971,6.6607,8.91,83,24,1.97,NO,1684034429
225,angaur state,6.906,134.13,29.06,69,21,4.14,PW,1684034429
226,chichimila,20.6167,-88.2167,25.29,80,2,2.54,MX,1684034430
227,buncrana,55.1333,-7.45,10.19,93,100,2.99,IE,1684034430
228,kalmunai,7.4167,81.8167,28.61,70,100,0.41,LK,1684034201
229,prince rupert,54.3161,-130.3201,13.05,100,100,3.6,CA,1684034430
230,newman,37.3138,-121.0208,27.99,58,0,0.45,US,1684034431
231,hamilton,39.1834,-84.5333,21.63,82,0,3.6,US,1684034431
232,hermanus,-34.4187,19.2345,11.56,72,56,6.55,ZA,1684034431
233,grand gaube,-20.0064,57.6608,22.99,82,16,1.34,MU,1684034431
234,armacao de buzios,-22.7469,-41.8817,18.03,78,69,2.0,BR,1684034431
235,igrim,63.1906,64.4162,2.24,58,99,3.73,RU,1684034432
236,purranque,-40.9167,-73.1667,8.63,97,100,0.65,CL,1684034432
237,saipan,15.1355,145.701,31.39,100,40,4.12,MP,1684034319
238,igarka,67.4667,86.5833,-3.13,93,100,4.89,RU,1684034432
239,crucecita,-28.95,-58.9833,13.66,73,85,2.91,AR,1684034433
240,santyoku,37.4406,129.1708,18.35,65,16,2.04,KR,1684034433
241,lucas,41.6501,-83.6666,18.32,62,100,5.14,US,1684034433
242,altay,47.8667,88.1167,19.41,47,27,2.69,CN,1684034433
243,la passe,45.5549,-0.8967,11.66,92,0,4.16,FR,1684034433
244,anisoc,1.8658,10.7689,21.5,100,97,0.16,GQ,1684034434
245,ust-nera,64.5667,143.2,1.09,66,96,2.16,RU,1684034434
246,papatowai,-46.5619,169.4708,11.26,79,83,2.18,NZ,1684034434
247,afaahiti,-17.75,-149.2833,28.93,81,62,5.65,PF,1684034435
248,olinda,-8.0089,-34.8553,27.85,74,75,3.09,BR,1684034182
249,morena,26.4969,78.0,37.7,14,5,5.37,IN,1684034164
250,punta arenas,-53.15,-70.9167,4.06,93,0,3.6,CL,1684034435
251,bairnsdale,-37.8333,147.6167,20.03,61,0,0.89,AU,1684034436
252,yonggwang-up,40.0183,127.4547,20.13,56,15,3.87,KP,1684034436
253,salinopolis,-0.6136,-47.3561,26.59,83,97,3.01,BR,1684034436
254,moa,20.6569,-74.9403,25.23,85,92,3.98,CU,1684034295
255,kodiak,57.79,-152.4072,5.73,87,100,4.63,US,1684034437
256,kundiawa,-6.0167,144.9667,21.44,87,95,0.66,PG,1684034345
257,fuji,35.1667,138.6833,18.44,75,100,1.24,JP,1684034058
258,tawau,4.2498,117.8871,33.07,82,58,3.03,MY,1684034437
259,kerema,-7.9631,145.7785,28.6,79,94,1.47,PG,1684034437
260,pedernales,18.0384,-71.744,26.72,73,100,3.22,DO,1684034438
261,muravlenko,63.7898,74.523,-4.37,77,63,8.02,RU,1684034438
262,east ballina,-28.8667,153.5833,20.01,94,17,2.62,AU,1684034438
263,caucaguito,10.4867,-66.738,24.04,86,74,0.88,VE,1684034272
264,kievka,50.2619,71.5514,13.02,52,37,7.99,KZ,1684034438
265,bhandara,21.1667,79.65,35.85,11,36,3.21,IN,1684034371
266,fayroz koh,34.5195,65.2509,12.01,51,0,1.14,AF,1684034439
267,siwa oasis,29.2041,25.5195,20.29,45,48,2.9,EG,1684034439
268,jaisalmer,26.9147,70.9181,32.71,32,22,8.03,IN,1684034439
269,zhanaozen,43.3,52.8,15.85,50,100,10.6,KZ,1684034156
270,korsakov,46.6328,142.7813,17.91,57,100,6.17,RU,1684034440
271,la rinconada,37.4873,-5.9826,18.1,77,0,2.57,ES,1684034440
272,vadso,70.0744,29.7487,7.49,65,40,4.63,NO,1684034440
273,nemuro,43.3236,145.575,8.92,96,70,7.46,JP,1684034440
274,puerto baquerizo moreno,-0.9,-89.6,26.03,81,62,5.78,EC,1684034440
275,foso,5.7012,-1.2866,24.11,98,100,1.25,GH,1684034359
276,kashiwazaki,37.3667,138.55,21.6,62,100,3.31,JP,1684034280
277,kiruna,67.8557,20.2251,5.51,70,100,2.06,SE,1684034441
278,zwickau,50.7167,12.4833,9.39,90,23,1.54,DE,1684034441
279,iskateley,67.6803,53.1512,-0.81,88,97,5.17,RU,1684034441
280,nichinan,31.6,131.3667,20.82,75,97,1.14,JP,1684034253
281,sosnovo,60.5514,30.2144,10.54,69,99,2.57,RU,1684034442
282,north platte,41.1239,-100.7654,16.73,91,100,4.12,US,1684034442
283,wenchang,30.904,118.4887,28.73,44,73,3.74,CN,1684034442
284,kingston,17.997,-76.7936,27.53,83,20,3.6,JM,1684034443
285,ponta delgada,37.7333,-25.6667,15.4,88,20,1.54,PT,1684034443
286,keflavik,64.0049,-22.5624,6.24,81,100,10.8,IS,1684034443
287,kavieng,-2.5744,150.7967,28.44,75,99,0.48,PG,1684034444
288,prado,-17.3411,-39.2208,22.93,86,47,2.73,BR,1684034444
289,taoudenni,22.6783,-3.9836,31.99,12,2,2.62,ML,1684034444
290,andergrove,-21.0833,149.1833,22.94,76,79,7.87,AU,1684034444
291,kizhinga,51.8462,109.9097,5.68,50,100,6.15,RU,1684034445
292,eunice,30.4944,-92.4176,25.51,86,8,3.2,US,1684034445
293,vikulovo,56.8167,70.6107,9.49,42,100,2.98,RU,1684034445
294,vanimo,-2.6741,141.3028,29.96,72,51,0.58,PG,1684034446
295,turochak,52.2576,87.1224,4.96,93,100,1.78,RU,1684034217
296,tolanaro,-25.0319,46.9987,20.77,89,31,1.97,MG,1684034158
297,carutapera,-1.195,-46.02,25.23,90,87,1.85,BR,1684034446
298,hobyo,5.3505,48.5268,27.15,84,7,8.2,SO,1684034446
299,okha,53.5739,142.9478,8.18,68,15,3.74,RU,1684034447
300,tsiombe,-25.3,45.4833,19.43,93,77,0.87,MG,1684034439
301,yaren,-0.5472,166.916,28.26,79,100,2.8,NR,1684034158
302,machico,32.7,-16.7667,19.35,68,40,6.17,PT,1684034447
303,ciudad lazaro cardenas,17.9583,-102.2,26.64,65,0,2.75,MX,1684034447
304,barrouallie,13.2333,-61.2667,25.79,78,40,4.12,VC,1684034448
305,hirara,24.8,125.2833,24.15,69,75,4.63,JP,1684034448
306,san pedro,14.35,121.0167,31.86,70,78,0.77,PH,1684034088
307,alofi,-19.0595,-169.9187,26.94,74,81,3.6,NU,1684034448
308,mitsamiouli,-11.3847,43.2844,26.55,74,46,1.31,KM,1684034448
309,san juan de miraflores,-12.1629,-76.9635,22.87,82,9,2.65,PE,1684034449
310,starogard gdanski,53.964,18.5264,9.26,92,7,2.07,PL,1684034449
311,shenjiamen,29.9576,122.298,20.1,74,100,2.87,CN,1684034450
312,jiayuguan,39.8167,98.3,21.9,13,1,1.31,CN,1684034450
313,tommot,58.9564,126.2925,5.95,90,100,0.93,RU,1684034450
314,greenville,35.6127,-77.3663,22.09,76,75,2.57,US,1684034450
315,new norfolk,-42.7826,147.0587,15.72,58,71,2.68,AU,1684034451
316,opatija,45.3392,14.3083,14.3,86,100,3.54,HR,1684034451
317,verkhnevilyuysk,63.4453,120.3167,8.6,53,100,3.52,RU,1684034451
318,nanao,37.05,136.9667,23.49,75,99,1.5,JP,1684034451
319,lautoka,-17.6167,177.4667,27.92,69,100,4.12,FJ,1684034452
320,qarazhal,48.0078,70.7903,15.5,37,100,5.18,KZ,1684034341
321,rio gallegos,-51.6226,-69.2181,5.03,93,75,4.12,AR,1684034452
322,severo-yeniseyskiy,60.3725,93.0408,-2.88,65,82,2.68,RU,1684034452
323,mareeba,-17.0,145.4333,28.02,62,97,3.42,AU,1684034453
324,"laikit, laikit ii (dimembe)",1.4792,124.9735,30.47,66,40,2.06,ID,1684034453
325,marks,51.7111,46.7486,12.93,73,84,1.27,RU,1684034453
326,telfs,47.3,11.0667,9.77,92,70,1.05,AT,1684034453
327,arraial do cabo,-22.9661,-42.0278,21.25,65,98,0.86,BR,1684034454
328,nagqu,31.5,92.0,2.48,17,0,3.13,CN,1684034454
329,tak bai,6.2595,102.0546,34.02,61,32,1.61,TH,1684034272
330,marsa alam,25.0757,34.8918,24.26,50,74,6.6,EG,1684034455
331,usinsk,65.9939,57.5281,-2.14,79,100,2.99,RU,1684034280
332,kharkhorin,47.1975,102.8238,14.8,33,83,5.01,MN,1684034455
333,kargil,34.5667,76.1,3.16,55,91,0.98,IN,1684034455
334,kalevala,65.2,31.1667,4.75,99,99,0.98,RU,1684034455
335,am timan,11.0297,20.2827,29.73,46,70,2.82,TD,1684034456
336,bangangte,5.1409,10.5198,18.01,94,100,0.72,CM,1684034456
337,sinop,41.7711,34.8709,6.74,74,3,1.79,TR,1684034331
338,mabaruma,8.2,-59.7833,23.32,96,52,1.27,GY,1684034457
339,kidal,18.4411,1.4078,30.89,33,62,4.48,ML,1684034457
340,burao,9.5221,45.5336,24.37,65,96,3.98,SO,1684034457
341,paciran,-6.8767,112.3761,28.02,68,12,0.95,ID,1684034457
342,mutuali,-14.8706,37.0044,16.46,92,16,0.41,MZ,1684034441
343,tofol,5.3248,163.0078,28.16,78,99,6.02,FM,1684034458
344,kolonia,50.9333,6.95,12.14,89,17,0.89,DE,1684034458
345,aasiaat,68.7098,-52.8699,-5.15,78,100,1.97,GL,1684034458
346,pisco,-13.7,-76.2167,20.03,83,75,3.09,PE,1684034459
347,chifeng,42.2683,118.9636,25.71,20,0,5.04,CN,1684034459
348,fale old settlement,-9.3852,-171.2468,28.5,77,15,3.22,TK,1684034459
349,saudarkrokur,65.7461,-19.6394,3.12,99,100,3.92,IS,1684034460
350,dakhla,23.6848,-15.958,18.26,82,0,9.37,EH,1684034460
351,jinka,5.65,36.65,16.73,89,41,1.09,ET,1684034460
352,halol,22.5,73.4667,30.58,35,0,3.49,IN,1684034460
353,juan griego,11.0817,-63.9655,27.07,89,100,8.75,VE,1684034269
354,uzgen,40.7699,73.3007,21.16,59,87,1.11,KG,1684034461
355,yokadouma,3.5167,15.05,21.57,96,100,0.69,CM,1684034461
356,oulad teima,30.3947,-9.209,14.6,67,0,1.23,MA,1684034461
357,jiazi,22.8779,116.067,21.96,84,100,0.3,CN,1684034462
358,torghay,49.6339,63.4981,9.63,61,68,6.04,KZ,1684034462
359,bodo,67.28,14.405,8.21,89,100,5.66,NO,1684034462
360,kerikeri,-35.2268,173.9474,19.39,77,72,1.48,NZ,1684034462
361,uren',57.4552,45.7852,8.67,92,99,3.82,RU,1684034462
362,howrah,22.5892,88.3103,31.0,70,40,5.14,IN,1684034285
363,amos,48.5669,-78.1162,2.01,74,32,3.86,CA,1684034252
364,ambikapur,23.1167,83.2,33.28,21,96,2.3,IN,1684034281
365,paungde,18.4833,95.5,29.75,65,100,11.49,MM,1684034463
366,malanje,-9.5402,16.341,16.24,69,37,1.3,AO,1684034463
367,alaghsas,17.0187,8.0168,28.31,17,83,2.67,NE,1684034464
368,betio village,1.358,172.9211,31.02,81,76,6.54,KI,1684034464
369,sompeta,18.9333,84.6,30.68,64,100,2.08,IN,1684034360
370,itaituba,-4.2761,-55.9836,23.07,98,72,0.79,BR,1684034209
371,dhalie,13.6957,44.7314,22.25,66,0,1.49,YE,1684034465
372,callao,-12.0667,-77.15,23.73,78,100,4.63,PE,1684034465
373,mineiros,-17.5694,-52.5511,15.19,68,99,1.58,BR,1684034465
374,nizhneudinsk,54.9076,99.0276,4.56,27,98,3.74,RU,1684034466
375,buka,40.8108,69.1986,25.4,35,4,2.55,UZ,1684034466
376,lejanias,3.5251,-74.0216,21.49,95,100,1.7,CO,1684034466
377,inari,68.906,27.0288,8.11,79,99,1.69,FI,1684034466
378,carloforte,39.145,8.3058,15.83,78,10,5.6,IT,1684034467
379,tame,6.461,-71.73,23.02,87,100,1.32,CO,1684034295
380,tual,-5.6667,132.75,27.8,78,97,1.67,ID,1684034264
381,sao gabriel da cachoeira,-0.1303,-67.0892,22.9,98,100,0.29,BR,1684034262
382,madisonville,37.3281,-87.4989,21.92,89,100,1.65,US,1684034234
383,port hueneme,34.1478,-119.1951,20.8,92,100,2.57,US,1684034468
384,tambopata,-12.7333,-69.1833,21.8,81,100,1.13,PE,1684034468
385,valle de bravo,19.1833,-100.1333,19.93,54,3,1.64,MX,1684034469
386,ilek,51.5271,53.3831,11.84,67,6,1.78,RU,1684034469
387,fuyuan,46.4333,127.0833,22.42,27,0,6.56,CN,1684034469
388,tabou,4.423,-7.3528,26.42,87,92,2.25,CI,1684034435
389,argos orestiko,40.4667,21.2667,10.83,98,100,1.05,GR,1684034469
390,papao,-17.75,-149.55,29.82,81,35,6.31,PF,1684034470
391,kenai,60.5544,-151.2583,12.05,50,0,5.14,US,1684034470
392,tarija,-21.5355,-64.7296,14.03,72,0,0.86,BO,1684034470
393,sitka,57.0531,-135.33,11.94,76,75,0.0,US,1684034471
394,nayudupet,13.9,79.9,34.77,37,69,9.36,IN,1684034359
395,acajutla,13.5928,-89.8275,28.25,77,72,1.13,SV,1684034471
396,neryungri,56.6709,124.6491,1.64,100,100,1.18,RU,1684034471
397,peterhead,57.5058,-1.7981,7.22,95,100,6.9,GB,1684034471
398,adiake,5.2863,-3.304,25.88,90,100,2.07,CI,1684034190
399,bac lieu,9.285,105.7244,31.68,61,37,4.3,VN,1684034274
400,tocaima,4.4582,-74.6343,24.67,83,100,2.16,CO,1684034472
401,wingham,43.8879,-81.3114,11.27,65,93,4.44,CA,1684034472
402,hasaki,35.7333,140.8333,20.22,63,100,8.47,JP,1684034301
403,st. john's,47.5649,-52.7093,7.66,97,100,9.77,CA,1684034473
404,alice springs,-23.7,133.8833,23.75,29,40,5.14,AU,1684034473
405,suntar,62.1444,117.6319,3.23,74,100,4.65,RU,1684034473
406,tsiroanomandidy,-18.7667,46.0333,18.31,87,68,0.93,MG,1684034281
407,mani,4.8172,-72.2886,24.04,93,100,1.86,CO,1684034474
408,pikeville,37.4793,-82.5188,21.38,99,100,1.54,US,1684034474
409,namsos,64.4662,11.4957,6.03,93,0,5.14,NO,1684034474
410,isangel,-19.55,169.2667,27.06,78,100,3.09,VU,1684034474
411,krivosheino,57.3431,83.9261,5.03,32,98,2.17,RU,1684034475
412,bayanhongor,46.7167,100.1167,12.29,35,92,8.35,MN,1684034475
413,praia,14.9215,-23.5087,23.3,73,75,4.12,CV,1684034475
414,merizo village,13.2658,144.6691,32.31,87,14,4.8,GU,1684034475
415,kongsberg,59.6652,9.6465,6.9,100,0,0.49,NO,1684034476
416,nuuk,64.1835,-51.7216,-0.66,86,100,2.06,GL,1684034476
417,kutum,14.2,24.6667,24.9,21,30,5.61,SD,1684034476
418,lynchburg,37.4138,-79.1423,19.71,90,100,3.09,US,1684034476
419,otaci,48.43,27.7939,9.04,80,27,1.88,MD,1684034476
420,taltal,-25.4,-70.4833,17.57,84,100,0.22,CL,1684034477
421,swift current,50.2834,-107.8014,14.45,62,0,2.06,CA,1684034477
422,island harbour,50.724,-1.2758,10.52,94,0,2.33,GB,1684034477
423,mil'kovo,55.6078,37.7956,11.08,82,4,3.35,RU,1684034477
424,soligalich,59.0778,42.2864,7.87,79,83,3.38,RU,1684034478
425,kyabram,-36.3167,145.05,21.6,42,0,3.52,AU,1684034478
426,knysna,-34.0363,23.0471,14.3,83,100,2.39,ZA,1684034478
427,port moresby,-9.4431,147.1797,31.68,70,40,5.14,PG,1684034478
428,saeby,57.3319,10.5225,8.96,83,51,3.12,DK,1684034479
429,molde,62.7375,7.1591,5.91,100,52,3.09,NO,1684034479
430,lompoc,34.6391,-120.4579,22.08,93,100,2.57,US,1684034206
431,golfito,8.639,-83.166,24.62,94,36,0.77,CR,1684034479
432,sumenep,-7.0167,113.8667,28.41,64,59,2.42,ID,1684034202
433,paita,-5.0892,-81.1144,24.85,79,1,5.8,PE,1684034480
434,lazaro cardenas,17.9583,-102.2,26.64,65,0,2.75,MX,1684034447
435,coquimbo,-29.9533,-71.3436,11.85,100,3,1.03,CL,1684034480
436,manado,1.487,124.8455,32.43,66,40,2.06,ID,1684034480
437,mucuri,-18.0864,-39.5508,23.57,83,82,3.94,BR,1684034481
438,levuka,50.1834,-105.4011,12.84,54,0,1.28,CA,1684034481
439,kluczbork,50.9728,18.2182,7.21,91,63,3.39,PL,1684034481
440,sisimiut,66.9395,-53.6735,-3.18,80,34,3.49,GL,1684034481
441,muisne,0.6,-80.0333,26.59,88,87,3.67,EC,1684034482
442,kirakira,-10.4544,161.9205,29.02,79,86,2.6,SB,1684034482
443,timbuktu,16.7735,-3.0074,33.59,25,65,1.62,ML,1684034482
444,karatau,43.1667,70.4667,22.85,40,42,2.22,KZ,1684034482
445,nadym,65.5333,72.5167,-4.44,84,73,6.63,RU,1684034483
446,guajara mirim,-10.7828,-65.3394,24.22,79,100,1.2,BR,1684034483
447,lagos,6.5833,3.75,26.18,84,100,1.69,NG,1684034208
448,vernon,50.2581,-119.2691,25.74,29,99,1.03,CA,1684034483
449,la libertad,-2.2333,-80.9,25.73,82,96,3.69,EC,1684034484
450,elliot lake,46.3834,-82.6331,7.52,50,51,2.89,CA,1684034484
451,al bayda,32.7627,21.7551,19.73,36,100,7.94,LY,1684034484
452,borogontsy,62.6683,131.1683,10.91,39,91,1.97,RU,1684034485
453,gerash,27.6652,54.1371,22.08,14,0,2.32,IR,1684034196
454,rio san juan,19.6439,-70.0763,25.37,84,100,5.13,DO,1684034485
455,adam,22.3756,57.5233,30.25,32,0,2.59,OM,1684034485
456,rawlins,41.7911,-107.2387,7.94,76,75,7.2,US,1684034485
457,nieuw amsterdam,5.8833,-55.0833,25.57,91,100,3.26,SR,1684034486
458,phalaborwa,-23.943,31.1411,20.6,96,1,1.72,ZA,1684034212
459,buala,-8.145,159.5921,29.29,76,67,1.71,SB,1684034486
460,sandnessjoen,66.0217,12.6316,7.03,94,70,0.89,NO,1684034486
461,zubtsov,56.1753,34.5894,8.42,84,42,2.67,RU,1684034487
462,watsa,3.0372,29.5355,18.71,74,35,1.4,CD,1684034487
463,martapura,-3.4167,114.85,31.05,62,40,1.54,ID,1684034222
464,los zacatones,22.95,-102.05,20.44,14,2,7.34,MX,1684034487
465,banda aceh,5.5577,95.3222,31.15,60,93,3.36,ID,1684034487
466,hengchun,22.0042,120.7439,25.92,77,100,2.06,TW,1684033629
467,kittila,67.6647,24.8936,5.9,70,0,1.03,FI,1684034488
468,weyburn,49.6668,-103.8511,13.12,76,96,1.54,CA,1684034488
469,razole,16.4833,81.8333,33.27,53,97,1.9,IN,1684034488
470,ad dabbah,18.05,30.95,26.87,16,0,4.91,SD,1684034488
471,lecheng,25.1238,113.3254,23.81,72,100,0.83,CN,1684034489
472,axim,4.8699,-2.2405,26.76,87,100,3.14,GH,1684034359
473,kamina,-8.7386,24.9906,16.94,77,52,1.38,CD,1684034357
474,colonia,50.9333,6.95,12.14,89,17,0.89,DE,1684034458
475,chaumont,48.1167,5.1333,6.32,94,8,2.1,FR,1684034489
476,polyarnyy,69.1989,33.4478,5.0,95,99,4.65,RU,1684034490
477,senador jose porfirio,-2.5908,-51.9542,23.66,96,99,0.9,BR,1684034490
478,sinabang,2.4803,96.3801,29.76,71,54,0.85,ID,1684034490
479,bogotol,56.2078,89.5342,4.26,29,84,3.23,RU,1684034491
480,mohale's hoek,-30.1514,27.4769,9.81,77,48,2.94,LS,1684034343
481,ardakan,32.31,54.0175,27.7,15,3,1.61,IR,1684034492
482,znamenskoye,57.1281,73.8282,8.51,28,100,2.61,RU,1684034492
483,qinzhou,21.95,108.6167,22.25,80,99,4.04,CN,1684034401
484,ixtapa,20.7,-105.2,24.57,78,20,0.0,MX,1684034201
485,verkhniy mamon,50.1635,40.3832,11.66,80,37,1.7,RU,1684034493
486,lata,40.1629,-8.3327,10.6,88,0,1.43,PT,1684034493
487,kogalym,62.2654,74.4791,0.64,70,100,8.73,RU,1684034493
488,sanctuary point,-35.1114,150.629,18.44,59,14,2.04,AU,1684034493
489,hadagalli,15.0167,75.95,27.23,64,45,6.51,IN,1684034494
490,smithers,54.7804,-127.1743,20.18,45,40,4.63,CA,1684034494
491,strezhevoy,60.7333,77.5889,7.81,47,98,5.41,RU,1684034494
492,gaiman,-43.2897,-65.4929,15.89,53,100,5.39,AR,1684034494
493,canutama,-6.5339,-64.3831,24.17,94,100,1.23,BR,1684034495
494,boa vista,2.8197,-60.6733,24.99,94,75,1.03,BR,1684034495
495,maragogi,-9.0122,-35.2225,26.41,76,96,3.01,BR,1684034495
496,shakawe,-18.3667,21.85,14.39,49,5,2.39,BW,1684034495
497,chinde,26.8418,88.0763,25.72,31,62,1.72,NP,1684034496
498,massawa,15.6097,39.45,29.48,79,1,1.35,ER,1684034496
499,meadow lakes,61.6247,-149.6011,15.14,37,0,4.12,US,1684034496
500,copala,16.65,-98.9833,26.78,70,1,0.52,MX,1684034496
501,pachino,36.7186,15.0907,17.55,87,77,4.65,IT,1684034497
502,shimoda,34.6667,138.95,20.2,81,100,5.29,JP,1684034291
503,kuragino,53.8975,92.6725,5.21,31,100,1.84,RU,1684034498
504,weno,7.4515,151.8468,28.84,74,100,2.98,FM,1684034498
505,waingapu,-9.6567,120.2641,28.42,55,100,5.09,ID,1684034498
506,bandarbeyla,9.4942,50.8122,27.21,87,64,7.92,SO,1684034498
507,camana,-16.6228,-72.7111,19.89,86,56,0.73,PE,1684034499
508,nelson bay,-32.7167,152.15,21.16,74,38,0.89,AU,1684034499
509,narvik,68.4384,17.4272,7.99,94,100,1.87,NO,1684034499
510,kirensk,57.7853,108.1119,4.72,28,99,4.47,RU,1684034499
511,lumphat,13.4878,106.9816,30.29,69,90,3.0,KH,1684034500
512,belmonte,-15.8631,-38.8828,24.46,86,51,2.97,BR,1684034500
513,kazanskoye,55.6448,69.235,7.97,55,100,5.02,RU,1684034500
514,valfin-les-saint-claude,46.4376,5.8551,10.19,96,58,1.13,FR,1684034500
515,nantucket,41.2835,-70.0995,14.03,89,0,1.54,US,1684034500
516,ngerengere,-6.75,38.1167,20.53,97,88,1.15,TZ,1684034457
517,minas de marcona,-15.2119,-75.1103,15.76,84,19,1.77,PE,1684034501
518,khash,28.2211,61.2158,25.3,15,0,2.33,IR,1684034501
519,pangkalanbuun,-2.6833,111.6167,30.88,57,59,2.57,ID,1684034260
520,hargeysa,9.56,44.065,21.83,64,22,3.92,SO,1684034502
521,delijan,33.9905,50.6838,23.02,17,0,6.77,IR,1684034260
522,cloquet,46.7216,-92.4594,12.1,40,75,4.63,US,1684034502
523,laojunmiao,39.8333,97.7333,18.44,14,3,2.25,CN,1684034502
524,salekhard,66.53,66.6019,-4.85,87,98,2.82,RU,1684034503
525,krong kep,10.4833,104.3167,32.98,59,99,4.33,KH,1684034503
526,north bend,43.4065,-124.2243,23.29,70,0,4.12,US,1684034503
527,mount gambier,-37.8333,140.7667,18.2,44,6,2.83,AU,1684034503
528,tazacorte,28.629,-17.9293,19.54,75,100,8.23,ES,1684034504
529,wagar,16.1525,36.2032,27.61,49,0,3.56,SD,1684034504
530,coyhaique,-45.5752,-72.0662,11.34,87,100,3.09,CL,1684034504
531,oakdale,44.963,-92.9649,15.0,70,100,5.66,US,1684034269
532,demba,-5.51,22.2667,22.5,72,78,0.43,CD,1684034357
533,nahariyya,33.0059,35.0941,19.99,66,95,1.02,IL,1684034505
534,sretensk,52.2453,117.7093,15.21,30,77,2.67,RU,1684034505
535,sakaraha,-22.9,44.5333,18.13,84,7,0.34,MG,1684034439
536,skive,56.5667,9.0333,8.98,94,35,2.52,DK,1684034506
537,bintulu,3.1667,113.0333,29.23,74,20,2.57,MY,1684034506
538,ola,59.5833,151.2833,3.97,95,100,2.95,RU,1684034506
539,fayzabad,37.1166,70.58,19.67,46,0,0.42,AF,1684034506
540,malango,-2.9627,119.9001,28.11,58,14,1.53,ID,1684034507
541,whitefish,48.4111,-114.3376,18.86,34,0,5.66,US,1684034507
542,morehead city,34.7229,-76.726,22.79,82,0,5.66,US,1684034507
543,nyagan,62.1406,65.3936,2.92,82,100,3.95,RU,1684034507
544,pleasanton,37.6624,-121.8747,26.9,51,0,3.09,US,1684034508
545,gumdag,39.2061,54.5906,20.54,52,97,3.56,TM,1684034461
546,nyaunglebin,17.95,96.7333,29.27,75,100,8.36,MM,1684034305
547,tralee,52.2704,-9.7026,10.05,93,100,2.32,IE,1684034508
548,kuanda,56.3161,116.0806,6.97,56,100,3.36,RU,1684034508
549,naze,28.3667,129.4833,21.51,68,100,4.93,JP,1684034365
550,fauske,67.2588,15.3918,8.21,77,100,1.74,NO,1684034509
551,ulladulla,-35.35,150.4667,19.32,64,9,2.32,AU,1684034509
552,yarmouth,41.7057,-70.2286,14.42,85,0,1.34,US,1684034509
553,ta`u,-14.2336,-169.5144,27.84,70,13,1.76,AS,1684034510
554,matoury,4.8483,-52.3317,23.98,100,20,0.51,GF,1684034510
555,chegdomyn,51.1167,133.0167,17.09,53,82,3.03,RU,1684034511
556,at taj,24.2049,23.2857,21.16,25,86,4.38,LY,1684034511
557,isna,25.2934,32.554,23.12,25,96,4.13,EG,1684034511
558,illizi,26.4833,8.4667,27.89,25,70,3.66,DZ,1684034214
559,kristiansund,63.1115,7.732,7.36,93,5,2.06,NO,1684034511
560,bat khela,34.6167,71.9714,24.53,38,59,1.74,PK,1684034277
561,monrovia,6.3005,-10.7969,24.87,86,100,2.35,LR,1684034512
562,pacific grove,36.6177,-121.9166,19.0,88,0,2.57,US,1684034512
563,merritt,50.1123,-120.7942,23.51,33,80,1.16,CA,1684034512
564,auki,-8.7676,160.7034,28.68,78,63,0.84,SB,1684034512
565,ji'an,27.1172,114.9793,27.02,54,100,1.83,CN,1684034513
566,abeche,13.8292,20.8324,30.58,17,80,7.05,TD,1684034355
567,ain beida,35.7964,7.3928,10.23,86,99,3.84,DZ,1684034272
568,awjilah,29.1081,21.2869,23.01,32,72,4.03,LY,1684034513
569,verkhniye kigi,55.4083,58.6044,9.01,70,100,2.6,RU,1684034513
570,port saint john's,-31.6229,29.5448,18.77,87,100,2.3,ZA,1684034514
571,ballina,-28.8667,153.5667,20.01,94,18,2.62,AU,1684034514
572,feicheng,35.2606,117.9675,29.1,35,16,5.16,CN,1684034514
573,sanga-sanga,5.0725,119.7853,28.34,75,16,1.64,PH,1684034514
574,al kharijah,25.4514,30.5464,21.06,32,98,5.1,EG,1684034514
575,mejit,10.2753,170.8646,27.74,80,8,7.82,MH,1684034515
